[
  {
    "id": "-2147444452_2",
    "stationName": "Diga Osento",
    "sensorMU": "mm",
    "sensorDescr": "Raingauge",
    "lon": 15.375,
    "lat": 41.057667
  },
  {
    "id": "4432_2",
    "stationName": "Alagna-Bocchetta P.",
    "sensorMU": "mm",
    "sensorDescr": "Raingauge",
    "lon": 7.9016666,
    "lat": 45.87389
  },
  {
    "id": "-2147444451_2",
    "stationName": "F. Ofanto - S.Samuele di Cafiero",
    "sensorMU": "mm",
    "sensorDescr": "Raingauge",
    "lon": 16.140833,
    "lat": 41.106335
  },
  {
    "id": "-2147444447_2",
    "stationName": "Foggia Istituto Agrario",
    "sensorMU": "mm",
    "sensorDescr": "Raingauge",
    "lon": 15.483167,
    "lat": 41.469
  },
  {
    "id": "268442973_2",
    "stationName": "Acqui Terme",
    "sensorMU": "mm",
    "sensorDescr": "Raingauge",
    "lon": 8.463333,
    "lat": 44.678333
  },
  {
    "id": "-2147444445_2",
    "stationName": "Forenza",
    "sensorMU": "mm",
    "sensorDescr": "Raingauge",
    "lon": 15.854333,
    "lat": 40.849834
  },
  {
    "id": "-2147444443_2",
    "stationName": "Gallipoli",
    "sensorMU": "mm",
    "sensorDescr": "Raingauge",
    "lon": 17.976334,
    "lat": 40.069
  },
  {
    "id": "-2147444440_2",
    "stationName": "Ginosa",
    "sensorMU": "mm",
    "sensorDescr": "Raingauge",
    "lon": 16.862667,
    "lat": 40.5445
  },
  {
    "id": "268441015_2",
    "stationName": "Pralormo-Lago Spina",
    "sensorMU": "mm",
    "sensorDescr": "Raingauge",
    "lon": 7.915278,
    "lat": 44.85278
  },
  {
    "id": "-2147444438_2",
    "stationName": "Lagopesole",
    "sensorMU": "mm",
    "sensorDescr": "Raingauge",
    "lon": 15.643666,
    "lat": 40.83917
  },
  {
    "id": "268442988_2",
    "stationName": "Luserna S.Giov.-Pra.",
    "sensorMU": "mm",
    "sensorDescr": "Raingauge",
    "lon": 7.2419443,
    "lat": 44.811943
  },
  {
    "id": "-2147444435_2",
    "stationName": "Lecce",
    "sensorMU": "mm",
    "sensorDescr": "Raingauge",
    "lon": 18.178,
    "lat": 40.354332
  },
  {
    "id": "268442997_2",
    "stationName": "Boves-Casc.Borelli",
    "sensorMU": "mm",
    "sensorDescr": "Raingauge",
    "lon": 7.558611,
    "lat": 44.334446
  },
  {
    "id": "-2147444430_2",
    "stationName": "Lesina",
    "sensorMU": "mm",
    "sensorDescr": "Raingauge",
    "lon": 15.328333,
    "lat": 41.8715
  },
  {
    "id": "-2147444427_2",
    "stationName": "Manfredonia (B.S.)",
    "sensorMU": "mm",
    "sensorDescr": "Raingauge",
    "lon": 15.872833,
    "lat": 41.575165
  },
  {
    "id": "268441459_2",
    "stationName": "Cabella L.-C.Cosola",
    "sensorMU": "mm",
    "sensorDescr": "Raingauge",
    "lon": 9.200277,
    "lat": 44.677223
  },
  {
    "id": "-2147444423_2",
    "stationName": "Martina Franca",
    "sensorMU": "mm",
    "sensorDescr": "Raingauge",
    "lon": 17.388834,
    "lat": 40.692165
  },
  {
    "id": "-2147444420_2",
    "stationName": "Mass.Monteruga",
    "sensorMU": "mm",
    "sensorDescr": "Raingauge",
    "lon": 17.886333,
    "lat": 40.351665
  },
  {
    "id": "268443075_2",
    "stationName": "Domodossola-Nosere",
    "sensorMU": "mm",
    "sensorDescr": "Raingauge",
    "lon": 8.302778,
    "lat": 46.11028
  },
  {
    "id": "-2147444417_2",
    "stationName": "Mass.S.Chiara",
    "sensorMU": "mm",
    "sensorDescr": "Raingauge",
    "lon": 16.062,
    "lat": 41.356167
  },
  {
    "id": "-2147444414_2",
    "stationName": "Melfi",
    "sensorMU": "mm",
    "sensorDescr": "Raingauge",
    "lon": 15.6206665,
    "lat": 40.990833
  },
  {
    "id": "-2147444412_2",
    "stationName": "Mercadante",
    "sensorMU": "mm",
    "sensorDescr": "Raingauge",
    "lon": 16.634832,
    "lat": 40.860832
  },
  {
    "id": "-2147444410_2",
    "stationName": "M.te Vulture",
    "sensorMU": "mm",
    "sensorDescr": "Raingauge",
    "lon": 15.614667,
    "lat": 40.944
  },
  {
    "id": "-2147444409_2",
    "stationName": "Montemilone",
    "sensorMU": "mm",
    "sensorDescr": "Raingauge",
    "lon": 16.007833,
    "lat": 41.022
  },
  {
    "id": "268443046_2",
    "stationName": "Verolengo-V.Vignoli",
    "sensorMU": "mm",
    "sensorDescr": "Raingauge",
    "lon": 8.011666,
    "lat": 45.185555
  },
  {
    "id": "-2147444408_2",
    "stationName": "Montursi (Gioia del Colle)",
    "sensorMU": "mm",
    "sensorDescr": "Raingauge",
    "lon": 16.903667,
    "lat": 40.725834
  },
  {
    "id": "-2147444407_2",
    "stationName": "Nusco",
    "sensorMU": "mm",
    "sensorDescr": "Raingauge",
    "lon": 15.085834,
    "lat": 40.884666
  },
  {
    "id": "-2147444404_2",
    "stationName": "Pietramontecorvino (AQP)",
    "sensorMU": "mm",
    "sensorDescr": "Raingauge",
    "lon": 15.249333,
    "lat": 41.511
  },
  {
    "id": "268439819_2",
    "stationName": "Albano Vercellese",
    "sensorMU": "mm",
    "sensorDescr": "Raingauge",
    "lon": 8.384167,
    "lat": 45.4375
  },
  {
    "id": "-2147444401_2",
    "stationName": "Presicce",
    "sensorMU": "mm",
    "sensorDescr": "Raingauge",
    "lon": 18.315332,
    "lat": 39.88983
  },
  {
    "id": "268443062_2",
    "stationName": "Alessandria-Lobbi",
    "sensorMU": "mm",
    "sensorDescr": "Raingauge",
    "lon": 8.713889,
    "lat": 44.926666
  },
  {
    "id": "-2147444399_2",
    "stationName": "Ripacandida",
    "sensorMU": "mm",
    "sensorDescr": "Raingauge",
    "lon": 15.713834,
    "lat": 40.913166
  },
  {
    "id": "-2147444398_2",
    "stationName": "Rocchetta Sant'Antonio",
    "sensorMU": "mm",
    "sensorDescr": "Raingauge",
    "lon": 15.441334,
    "lat": 41.096
  },
  {
    "id": "-2147444396_2",
    "stationName": "S.G. Jonico",
    "sensorMU": "mm",
    "sensorDescr": "Raingauge",
    "lon": 17.423,
    "lat": 40.453835
  },
  {
    "id": "-2147444394_2",
    "stationName": "S.Marco in Lamis",
    "sensorMU": "mm",
    "sensorDescr": "Raingauge",
    "lon": 15.655666,
    "lat": 41.798668
  },
  {
    "id": "268442315_2",
    "stationName": "Meugliano-V.Garavot",
    "sensorMU": "mm",
    "sensorDescr": "Raingauge",
    "lon": 7.775,
    "lat": 45.461666
  },
  {
    "id": "-2147444392_2",
    "stationName": "S.Severo",
    "sensorMU": "mm",
    "sensorDescr": "Raingauge",
    "lon": 15.392667,
    "lat": 41.685833
  },
  {
    "id": "268442309_2",
    "stationName": "Biella-Santuar.Oropa",
    "sensorMU": "mm",
    "sensorDescr": "Raingauge",
    "lon": 7.9875,
    "lat": 45.63028
  },
  {
    "id": "-2147444390_2",
    "stationName": "S.Vito dei Normanni",
    "sensorMU": "mm",
    "sensorDescr": "Raingauge",
    "lon": 17.751833,
    "lat": 40.65383
  },
  {
    "id": "-2147444387_2",
    "stationName": "S.M. di Leuca",
    "sensorMU": "mm",
    "sensorDescr": "Raingauge",
    "lon": 18.3475,
    "lat": 39.808
  },
  {
    "id": "-2147444383_2",
    "stationName": "S.Angelo dei Lombardi",
    "sensorMU": "mm",
    "sensorDescr": "Raingauge",
    "lon": 15.175,
    "lat": 40.917667
  },
  {
    "id": "268443093_2",
    "stationName": "Pino Torinese",
    "sensorMU": "mm",
    "sensorDescr": "Raingauge",
    "lon": 7.7672224,
    "lat": 45.04139
  },
  {
    "id": "-2147444382_2",
    "stationName": "Savignano Irpino",
    "sensorMU": "mm",
    "sensorDescr": "Raingauge",
    "lon": 15.2255,
    "lat": 41.22117
  },
  {
    "id": "-2147444381_2",
    "stationName": "Spinazzola",
    "sensorMU": "mm",
    "sensorDescr": "Raingauge",
    "lon": 16.1405,
    "lat": 40.957
  },
  {
    "id": "-2147444378_2",
    "stationName": "Talsano",
    "sensorMU": "mm",
    "sensorDescr": "Raingauge",
    "lon": 17.319166,
    "lat": 40.4065
  },
  {
    "id": "-2147444376_2",
    "stationName": "Teora",
    "sensorMU": "mm",
    "sensorDescr": "Raingauge",
    "lon": 15.243333,
    "lat": 40.847
  },
  {
    "id": "268443087_2",
    "stationName": "Casale Monferrato-Meteo",
    "sensorMU": "mm",
    "sensorDescr": "Raingauge",
    "lon": 8.495,
    "lat": 45.129166
  },
  {
    "id": "-2147444372_2",
    "stationName": "Vieste",
    "sensorMU": "mm",
    "sensorDescr": "Raingauge",
    "lon": 16.17639,
    "lat": 41.88111
  },
  {
    "id": "-2147444371_2",
    "stationName": "Bisaccia",
    "sensorMU": "mm",
    "sensorDescr": "Raingauge",
    "lon": 15.361834,
    "lat": 41.008835
  },
  {
    "id": "-2147444370_2",
    "stationName": "Adelfia",
    "sensorMU": "mm",
    "sensorDescr": "Raingauge",
    "lon": 16.867167,
    "lat": 41.00083
  },
  {
    "id": "-2147444369_2",
    "stationName": "Bari Campus",
    "sensorMU": "mm",
    "sensorDescr": "Raingauge",
    "lon": 16.8715,
    "lat": 41.095333
  },
  {
    "id": "-2147444368_2",
    "stationName": "Bari Osservatorio",
    "sensorMU": "mm",
    "sensorDescr": "Raingauge",
    "lon": 16.877333,
    "lat": 41.115166
  },
  {
    "id": "-2147444366_2",
    "stationName": "Bitonto",
    "sensorMU": "mm",
    "sensorDescr": "Raingauge",
    "lon": 16.705,
    "lat": 41.093
  },
  {
    "id": "6138_2",
    "stationName": "Cuorgne'-Belmonte",
    "sensorMU": "mm",
    "sensorDescr": "Raingauge",
    "lon": 7.63639,
    "lat": 45.37
  },
  {
    "id": "-2147444365_2",
    "stationName": "Conversano",
    "sensorMU": "mm",
    "sensorDescr": "Raingauge",
    "lon": 17.125834,
    "lat": 40.9205
  },
  {
    "id": "-2147444495_2",
    "stationName": "Giovinazzo",
    "sensorMU": "mm",
    "sensorDescr": "Raingauge",
    "lon": 16.617167,
    "lat": 41.0975
  },
  {
    "id": "-2147444494_2",
    "stationName": "Loconia",
    "sensorMU": "mm",
    "sensorDescr": "Raingauge",
    "lon": 15.953834,
    "lat": 41.1285
  },
  {
    "id": "268435458_2",
    "stationName": "Macugnaga-Passo Moro",
    "sensorMU": "mm",
    "sensorDescr": "Raingauge",
    "lon": 7.9823093,
    "lat": 45.996613
  },
  {
    "id": "-2147444364_2",
    "stationName": "Noci",
    "sensorMU": "mm",
    "sensorDescr": "Raingauge",
    "lon": 17.117666,
    "lat": 40.79117
  },
  {
    "id": "1073800617_1",
    "stationName": "Rio Gere",
    "sensorMU": "mm",
    "sensorDescr": "Pluviometro",
    "lon": 12.186649,
    "lat": 46.56783
  },
  {
    "id": "1073800618_1",
    "stationName": "Rio Gere",
    "sensorMU": "mm",
    "sensorDescr": "Pluviometro 10'",
    "lon": 12.186649,
    "lat": 46.56783
  },
  {
    "id": "58795_1",
    "stationName": "Mezzolombardo",
    "sensorMU": "mm",
    "sensorDescr": "Pluviometro",
    "lon": 11.103056,
    "lat": 46.19389
  },
  {
    "id": "-2147444363_2",
    "stationName": "Santeramo in Colle",
    "sensorMU": "mm",
    "sensorDescr": "Raingauge",
    "lon": 16.757,
    "lat": 40.789165
  },
  {
    "id": "-2147444361_2",
    "stationName": "Ceglie Messapica",
    "sensorMU": "mm",
    "sensorDescr": "Raingauge",
    "lon": 17.520334,
    "lat": 40.615334
  },
  {
    "id": "58796_1",
    "stationName": "Cavalese",
    "sensorMU": "mm",
    "sensorDescr": "Pluviometro",
    "lon": 11.48,
    "lat": 46.284443
  },
  {
    "id": "-2147444360_2",
    "stationName": "Alberona",
    "sensorMU": "mm",
    "sensorDescr": "Raingauge",
    "lon": 15.121166,
    "lat": 41.425835
  },
  {
    "id": "58797_1",
    "stationName": "Soraga",
    "sensorMU": "mm",
    "sensorDescr": "Pluviometro",
    "lon": 11.666667,
    "lat": 46.393333
  },
  {
    "id": "-2147444493_2",
    "stationName": "Candela",
    "sensorMU": "mm",
    "sensorDescr": "Raingauge",
    "lon": 15.521167,
    "lat": 41.148335
  },
  {
    "id": "58798_1",
    "stationName": "Male'",
    "sensorMU": "mm",
    "sensorDescr": "Pluviometro",
    "lon": 10.913611,
    "lat": 46.349167
  },
  {
    "id": "-2147444359_2",
    "stationName": "Fonte Rosa",
    "sensorMU": "mm",
    "sensorDescr": "Raingauge",
    "lon": 15.778334,
    "lat": 41.42267
  },
  {
    "id": "-2147444358_2",
    "stationName": "Orsara di Puglia",
    "sensorMU": "mm",
    "sensorDescr": "Raingauge",
    "lon": 15.299167,
    "lat": 41.263332
  },
  {
    "id": "-2147444492_2",
    "stationName": "Orto di Zolfo",
    "sensorMU": "mm",
    "sensorDescr": "Raingauge",
    "lon": 15.1705,
    "lat": 41.3585
  },
  {
    "id": "-2147444491_2",
    "stationName": "Rocchetta Scalo",
    "sensorMU": "mm",
    "sensorDescr": "Raingauge",
    "lon": 15.532833,
    "lat": 41.0665
  },
  {
    "id": "-2147444357_2",
    "stationName": "S.Giovanni Rotondo",
    "sensorMU": "mm",
    "sensorDescr": "Raingauge",
    "lon": 15.755,
    "lat": 41.712334
  },
  {
    "id": "-2147444356_2",
    "stationName": "S.Agata di Puglia",
    "sensorMU": "mm",
    "sensorDescr": "Raingauge",
    "lon": 15.392667,
    "lat": 41.144
  },
  {
    "id": "-2147444490_2",
    "stationName": "Tertiveri",
    "sensorMU": "mm",
    "sensorDescr": "Raingauge",
    "lon": 15.204,
    "lat": 41.4335
  },
  {
    "id": "-2147444355_2",
    "stationName": "Torremaggiore",
    "sensorMU": "mm",
    "sensorDescr": "Raingauge",
    "lon": 15.289,
    "lat": 41.6875
  },
  {
    "id": "268442293_2",
    "stationName": "Sauze d'Oulx-L.Pilone",
    "sensorMU": "mm",
    "sensorDescr": "Raingauge",
    "lon": 6.888889,
    "lat": 45.009724
  },
  {
    "id": "-2147444354_2",
    "stationName": "Vico del Gargano",
    "sensorMU": "mm",
    "sensorDescr": "Raingauge",
    "lon": 15.9245,
    "lat": 41.82733
  },
  {
    "id": "-1937157296_2",
    "stationName": "Arquata del Tronto",
    "sensorMU": "mm",
    "sensorDescr": "Raingauge",
    "lon": 13.29545,
    "lat": 42.777817
  },
  {
    "id": "-1937157324_2",
    "stationName": "Illice",
    "sensorMU": "mm",
    "sensorDescr": "Raingauge",
    "lon": 13.406834,
    "lat": 42.905216
  },
  {
    "id": "-2147444353_2",
    "stationName": "Volturino",
    "sensorMU": "mm",
    "sensorDescr": "Raingauge",
    "lon": 15.106167,
    "lat": 41.4535
  },
  {
    "id": "-1937157321_2",
    "stationName": "Amandola",
    "sensorMU": "mm",
    "sensorDescr": "Raingauge",
    "lon": 13.351334,
    "lat": 42.976383
  },
  {
    "id": "268443475_2",
    "stationName": "Formazza-P.Camosci",
    "sensorMU": "mm",
    "sensorDescr": "Raingauge",
    "lon": 8.366111,
    "lat": 46.4375
  },
  {
    "id": "-2147444352_2",
    "stationName": "Collepasso",
    "sensorMU": "mm",
    "sensorDescr": "Raingauge",
    "lon": 18.178,
    "lat": 40.069
  },
  {
    "id": "-1937157318_2",
    "stationName": "Frontino",
    "sensorMU": "mm",
    "sensorDescr": "Raingauge",
    "lon": 12.357,
    "lat": 43.758633
  },
  {
    "id": "-2147444489_2",
    "stationName": "Copertino",
    "sensorMU": "mm",
    "sensorDescr": "Raingauge",
    "lon": 18.051332,
    "lat": 40.268333
  },
  {
    "id": "-1937157315_2",
    "stationName": "Monte Acuto",
    "sensorMU": "mm",
    "sensorDescr": "Raingauge",
    "lon": 12.691967,
    "lat": 43.4777
  },
  {
    "id": "-2147444350_2",
    "stationName": "Galatina",
    "sensorMU": "mm",
    "sensorDescr": "Raingauge",
    "lon": 18.178,
    "lat": 40.142
  },
  {
    "id": "-2147444349_2",
    "stationName": "Melendugno",
    "sensorMU": "mm",
    "sensorDescr": "Raingauge",
    "lon": 18.2745,
    "lat": 40.2725
  },
  {
    "id": "-1937157312_2",
    "stationName": "Piobbico",
    "sensorMU": "mm",
    "sensorDescr": "Raingauge",
    "lon": 12.5152,
    "lat": 43.586735
  },
  {
    "id": "-2147444348_2",
    "stationName": "Minervino di Lecce",
    "sensorMU": "mm",
    "sensorDescr": "Raingauge",
    "lon": 18.418833,
    "lat": 40.088665
  },
  {
    "id": "-2147444346_2",
    "stationName": "Novoli",
    "sensorMU": "mm",
    "sensorDescr": "Raingauge",
    "lon": 18.058167,
    "lat": 40.372
  },
  {
    "id": "-2147444345_2",
    "stationName": "Vignacastrisi",
    "sensorMU": "mm",
    "sensorDescr": "Raingauge",
    "lon": 18.400167,
    "lat": 40.007168
  },
  {
    "id": "-1937154449_2",
    "stationName": "Atella",
    "sensorMU": "mm",
    "sensorDescr": "Raingauge",
    "lon": 15.632334,
    "lat": 40.880665
  },
  {
    "id": "-2147444343_2",
    "stationName": "Pescopagano",
    "sensorMU": "mm",
    "sensorDescr": "Raingauge",
    "lon": 15.380667,
    "lat": 40.829666
  },
  {
    "id": "268443542_2",
    "stationName": "Serole Bric-Puschera",
    "sensorMU": "mm",
    "sensorDescr": "Raingauge",
    "lon": 8.259444,
    "lat": 44.558056
  },
  {
    "id": "-2147444341_2",
    "stationName": "San Fele",
    "sensorMU": "mm",
    "sensorDescr": "Raingauge",
    "lon": 15.527,
    "lat": 40.8055
  },
  {
    "id": "13211_1",
    "stationName": "Polvese 2 La Villa",
    "sensorMU": "mm",
    "sensorDescr": "Raingauge",
    "lon": 12.1417,
    "lat": 43.1167
  },
  {
    "id": "-2147444339_2",
    "stationName": "Crispiano",
    "sensorMU": "mm",
    "sensorDescr": "Raingauge",
    "lon": 17.2485,
    "lat": 40.595333
  },
  {
    "id": "268442991_2",
    "stationName": "Frabosa Sottana-Mal.",
    "sensorMU": "mm",
    "sensorDescr": "Raingauge",
    "lon": 7.8055553,
    "lat": 44.26
  },
  {
    "id": "-2147444337_2",
    "stationName": "Manduria",
    "sensorMU": "mm",
    "sensorDescr": "Raingauge",
    "lon": 17.646,
    "lat": 40.383167
  },
  {
    "id": "-2147444335_2",
    "stationName": "Mottola",
    "sensorMU": "mm",
    "sensorDescr": "Raingauge",
    "lon": 17.041,
    "lat": 40.630833
  },
  {
    "id": "13829_1",
    "stationName": "Cancano OLD",
    "sensorMU": "mm",
    "sensorDescr": "Raingauge",
    "lon": 10.3228,
    "lat": 46.5136
  },
  {
    "id": "-2147444298_2",
    "stationName": "Mesagne",
    "sensorMU": "mm",
    "sensorDescr": "Raingauge",
    "lon": 17.790667,
    "lat": 40.555332
  },
  {
    "id": "6340_2",
    "stationName": "Briga Alta-Upega",
    "sensorMU": "mm",
    "sensorDescr": "Raingauge",
    "lon": 7.7291665,
    "lat": 44.1275
  },
  {
    "id": "-2147444318_2",
    "stationName": "Panni",
    "sensorMU": "mm",
    "sensorDescr": "Raingauge",
    "lon": 15.275,
    "lat": 41.2095
  },
  {
    "id": "8083_2",
    "stationName": "Briga Alta-Upega",
    "sensorMU": "mm",
    "sensorDescr": "Raingauge",
    "lon": 7.7291665,
    "lat": 44.1275
  },
  {
    "id": "58799_1",
    "stationName": "Vetriolo",
    "sensorMU": "mm",
    "sensorDescr": "Pluviometro",
    "lon": 11.309167,
    "lat": 46.04222
  },
  {
    "id": "-2147444315_2",
    "stationName": "Anzano di Puglia",
    "sensorMU": "mm",
    "sensorDescr": "Raingauge",
    "lon": 15.275333,
    "lat": 41.120834
  },
  {
    "id": "1073781159_2",
    "stationName": "Ariano Scalo",
    "sensorMU": "mm",
    "sensorDescr": "Raingauge",
    "lon": 15.139167,
    "lat": 41.1875
  },
  {
    "id": "268442708_2",
    "stationName": "Vinadio-C.Lombarda",
    "sensorMU": "mm",
    "sensorDescr": "Raingauge",
    "lon": 7.1469445,
    "lat": 44.20778
  },
  {
    "id": "-2147444311_2",
    "stationName": "Deliceto",
    "sensorMU": "mm",
    "sensorDescr": "Raingauge",
    "lon": 15.386833,
    "lat": 41.219666
  },
  {
    "id": "14278_1",
    "stationName": "Courmayeur-Mont de la Saxe",
    "sensorMU": "mm",
    "sensorDescr": "Raingauge",
    "lon": 6.99583,
    "lat": 45.8139
  },
  {
    "id": "-2147444309_2",
    "stationName": "Quasano",
    "sensorMU": "mm",
    "sensorDescr": "Raingauge",
    "lon": 16.572166,
    "lat": 40.959
  },
  {
    "id": "268474924_2",
    "stationName": "Chiaiano discarica",
    "sensorMU": "mm",
    "sensorDescr": "Raingauge",
    "lon": 14.1883335,
    "lat": 40.870556
  },
  {
    "id": "268443545_2",
    "stationName": "Perlo-Fornaca",
    "sensorMU": "mm",
    "sensorDescr": "Raingauge",
    "lon": 8.087222,
    "lat": 44.334167
  },
  {
    "id": "268443548_2",
    "stationName": "Somano-Albere",
    "sensorMU": "mm",
    "sensorDescr": "Raingauge",
    "lon": 8.015,
    "lat": 44.538055
  },
  {
    "id": "268442324_2",
    "stationName": "Druogno-Sasseglio",
    "sensorMU": "mm",
    "sensorDescr": "Raingauge",
    "lon": 8.420555,
    "lat": 46.138054
  },
  {
    "id": "268478697_2",
    "stationName": "Fiora a Vulci",
    "sensorMU": "mm",
    "sensorDescr": "Raingauge",
    "lon": 11.630278,
    "lat": 42.401943
  },
  {
    "id": "-2147443459_2",
    "stationName": "Chioggia S.Anna CMT",
    "sensorMU": "mm",
    "sensorDescr": "Raingauge",
    "lon": 12.275792,
    "lat": 45.144657
  },
  {
    "id": "268442374_2",
    "stationName": "Varallo-V.Crosa",
    "sensorMU": "mm",
    "sensorDescr": "Raingauge",
    "lon": 8.274445,
    "lat": 45.82028
  },
  {
    "id": "58800_1",
    "stationName": "Telve di Sopra",
    "sensorMU": "mm",
    "sensorDescr": "Pluviometro",
    "lon": 11.471666,
    "lat": 46.073612
  },
  {
    "id": "268442327_2",
    "stationName": "Borgomanero-Piovale",
    "sensorMU": "mm",
    "sensorDescr": "Raingauge",
    "lon": 8.460834,
    "lat": 45.705
  },
  {
    "id": "-2147443455_2",
    "stationName": "Montegalda CMT",
    "sensorMU": "mm",
    "sensorDescr": "Raingauge",
    "lon": 11.661985,
    "lat": 45.449577
  },
  {
    "id": "268442321_2",
    "stationName": "Varzo-S.Domenico",
    "sensorMU": "mm",
    "sensorDescr": "Raingauge",
    "lon": 8.188611,
    "lat": 46.24472
  },
  {
    "id": "-2147443451_2",
    "stationName": "Crespano del Grappa CMT",
    "sensorMU": "mm",
    "sensorDescr": "Raingauge",
    "lon": 11.840664,
    "lat": 45.8417
  },
  {
    "id": "268439797_2",
    "stationName": "Masserano",
    "sensorMU": "mm",
    "sensorDescr": "Raingauge",
    "lon": 8.248055,
    "lat": 45.56
  },
  {
    "id": "58801_1",
    "stationName": "Levico",
    "sensorMU": "mm",
    "sensorDescr": "Pluviometro",
    "lon": 11.318334,
    "lat": 46.003056
  },
  {
    "id": "-1937157196_2",
    "stationName": "Diga Locone",
    "sensorMU": "mm",
    "sensorDescr": "Raingauge",
    "lon": 15.991533,
    "lat": 41.09845
  },
  {
    "id": "-2147443447_2",
    "stationName": "Gaiarine CMT",
    "sensorMU": "mm",
    "sensorDescr": "Raingauge",
    "lon": 12.493487,
    "lat": 45.892174
  },
  {
    "id": "268443566_2",
    "stationName": "Treiso",
    "sensorMU": "mm",
    "sensorDescr": "Raingauge",
    "lon": 8.0925,
    "lat": 44.686943
  },
  {
    "id": "58802_1",
    "stationName": "Borgo Valsugana",
    "sensorMU": "mm",
    "sensorDescr": "Pluviometro",
    "lon": 11.46,
    "lat": 46.054165
  },
  {
    "id": "-1937157191_2",
    "stationName": "Acquaviva delle Fonti",
    "sensorMU": "mm",
    "sensorDescr": "Raingauge",
    "lon": 16.842466,
    "lat": 40.89705
  },
  {
    "id": "-2147443442_2",
    "stationName": "Campodarsego CMT",
    "sensorMU": "mm",
    "sensorDescr": "Raingauge",
    "lon": 11.913363,
    "lat": 45.495514
  },
  {
    "id": "58803_1",
    "stationName": "Ponte Filippini",
    "sensorMU": "mm",
    "sensorDescr": "Pluviometro",
    "lon": 11.644722,
    "lat": 46.004444
  },
  {
    "id": "7476_2",
    "stationName": "Torino-Buon Pastore",
    "sensorMU": "mm",
    "sensorDescr": "Raingauge",
    "lon": 7.68389,
    "lat": 45.0861
  },
  {
    "id": "-1937157188_2",
    "stationName": "Peschici",
    "sensorMU": "mm",
    "sensorDescr": "Raingauge",
    "lon": 16.016817,
    "lat": 41.945
  },
  {
    "id": "-2147443438_2",
    "stationName": "Monselice Ca' Oddo CMT",
    "sensorMU": "mm",
    "sensorDescr": "Raingauge",
    "lon": 11.745556,
    "lat": 45.194168
  },
  {
    "id": "-1937157185_2",
    "stationName": "Rodi Garganico",
    "sensorMU": "mm",
    "sensorDescr": "Raingauge",
    "lon": 15.881117,
    "lat": 41.92805
  },
  {
    "id": "58804_1",
    "stationName": "Fiera di Primiero",
    "sensorMU": "mm",
    "sensorDescr": "Pluviometro",
    "lon": 11.83,
    "lat": 46.174168
  },
  {
    "id": "-1937157182_2",
    "stationName": "Carpino",
    "sensorMU": "mm",
    "sensorDescr": "Raingauge",
    "lon": 15.855283,
    "lat": 41.844715
  },
  {
    "id": "-2147443434_2",
    "stationName": "Eraclea CMT",
    "sensorMU": "mm",
    "sensorDescr": "Raingauge",
    "lon": 12.707062,
    "lat": 45.603165
  },
  {
    "id": "268442965_2",
    "stationName": "Ponzone-Bric Berton",
    "sensorMU": "mm",
    "sensorDescr": "Raingauge",
    "lon": 8.538333,
    "lat": 44.521667
  },
  {
    "id": "58805_1",
    "stationName": "Pellizzano",
    "sensorMU": "mm",
    "sensorDescr": "Pluviometro",
    "lon": 10.761666,
    "lat": 46.31167
  },
  {
    "id": "-2147443430_2",
    "stationName": "Marano di Valpolicella CMT",
    "sensorMU": "mm",
    "sensorDescr": "Raingauge",
    "lon": 10.923326,
    "lat": 45.54789
  },
  {
    "id": "58806_1",
    "stationName": "Canezza",
    "sensorMU": "mm",
    "sensorDescr": "Pluviometro",
    "lon": 11.276389,
    "lat": 46.07639
  },
  {
    "id": "-2147443427_2",
    "stationName": "Follina CMT",
    "sensorMU": "mm",
    "sensorDescr": "Raingauge",
    "lon": 12.117079,
    "lat": 45.957035
  },
  {
    "id": "58807_1",
    "stationName": "Stedileri",
    "sensorMU": "mm",
    "sensorDescr": "Pluviometro",
    "lon": 11.171389,
    "lat": 45.86778
  },
  {
    "id": "-2147443423_2",
    "stationName": "Rosa' CMT",
    "sensorMU": "mm",
    "sensorDescr": "Raingauge",
    "lon": 11.776257,
    "lat": 45.716583
  },
  {
    "id": "268443056_2",
    "stationName": "Cameri-Casc.Bornago",
    "sensorMU": "mm",
    "sensorDescr": "Raingauge",
    "lon": 8.698055,
    "lat": 45.544724
  },
  {
    "id": "58808_1",
    "stationName": "S.Anna",
    "sensorMU": "mm",
    "sensorDescr": "Pluviometro",
    "lon": 11.100833,
    "lat": 45.795
  },
  {
    "id": "-2147443419_2",
    "stationName": "Bibione CMT",
    "sensorMU": "mm",
    "sensorDescr": "Raingauge",
    "lon": 13.077468,
    "lat": 45.641373
  },
  {
    "id": "58809_1",
    "stationName": "Rovereto",
    "sensorMU": "mm",
    "sensorDescr": "Pluviometro",
    "lon": 11.021944,
    "lat": 45.88139
  },
  {
    "id": "-2147443415_2",
    "stationName": "Volpago CMT",
    "sensorMU": "mm",
    "sensorDescr": "Raingauge",
    "lon": 12.113048,
    "lat": 45.785023
  },
  {
    "id": "58810_1",
    "stationName": "Vo' Destro",
    "sensorMU": "mm",
    "sensorDescr": "Pluviometro",
    "lon": 10.956944,
    "lat": 45.73528
  },
  {
    "id": "268443558_2",
    "stationName": "Costigliole Saluzzo",
    "sensorMU": "mm",
    "sensorDescr": "Raingauge",
    "lon": 7.4944444,
    "lat": 44.5575
  },
  {
    "id": "268440857_2",
    "stationName": "Cumiana-Pieve",
    "sensorMU": "mm",
    "sensorDescr": "Raingauge",
    "lon": 7.39,
    "lat": 44.9625
  },
  {
    "id": "1073800635_1",
    "stationName": "Val Genova O.P.Enel",
    "sensorMU": "mm",
    "sensorDescr": "Pluviometro modem",
    "lon": 10.726111,
    "lat": 46.170277
  },
  {
    "id": "58812_1",
    "stationName": "Val Genova O.P.Enel",
    "sensorMU": "mm",
    "sensorDescr": "Pluviometro",
    "lon": 10.726111,
    "lat": 46.170277
  },
  {
    "id": "58813_1",
    "stationName": "Spiazzo",
    "sensorMU": "mm",
    "sensorDescr": "Pluviometro",
    "lon": 10.739445,
    "lat": 46.102222
  },
  {
    "id": "268446496_2",
    "stationName": "Crissolo PO",
    "sensorMU": "mm",
    "sensorDescr": "Raingauge",
    "lon": 7.1563888,
    "lat": 44.699165
  },
  {
    "id": "58814_1",
    "stationName": "Preore",
    "sensorMU": "mm",
    "sensorDescr": "Pluviometro",
    "lon": 10.75,
    "lat": 46.042778
  },
  {
    "id": "268476998_2",
    "stationName": "Campochiaro",
    "sensorMU": "mm",
    "sensorDescr": "Raingauge",
    "lon": 14.5402775,
    "lat": 41.474724
  },
  {
    "id": "6843_2",
    "stationName": "Limone Piemonte",
    "sensorMU": "mm",
    "sensorDescr": "Raingauge",
    "lon": 7.6190214,
    "lat": 44.15283
  },
  {
    "id": "58815_1",
    "stationName": "Sarche",
    "sensorMU": "mm",
    "sensorDescr": "Pluviometro",
    "lon": 10.946944,
    "lat": 46.033333
  },
  {
    "id": "58817_1",
    "stationName": "Canal S.Bovo",
    "sensorMU": "mm",
    "sensorDescr": "Pluviometro",
    "lon": 11.744722,
    "lat": 46.16083
  },
  {
    "id": "23167_1",
    "stationName": "La Thuile-Foillex",
    "sensorMU": "mm",
    "sensorDescr": "Raingauge",
    "lon": 6.9725,
    "lat": 45.7175
  },
  {
    "id": "268443069_2",
    "stationName": "Mombarcaro",
    "sensorMU": "mm",
    "sensorDescr": "Raingauge",
    "lon": 8.088056,
    "lat": 44.46611
  },
  {
    "id": "-2147443027_2",
    "stationName": "Villanova CMT",
    "sensorMU": "mm",
    "sensorDescr": "Raingauge",
    "lon": 12.206261,
    "lat": 46.443275
  },
  {
    "id": "-2147443023_2",
    "stationName": "Turcati Recoaro CMT",
    "sensorMU": "mm",
    "sensorDescr": "Raingauge",
    "lon": 11.1848,
    "lat": 45.70401
  },
  {
    "id": "268442978_2",
    "stationName": "Montaldo Scarampi",
    "sensorMU": "mm",
    "sensorDescr": "Raingauge",
    "lon": 8.275,
    "lat": 44.83278
  },
  {
    "id": "-2147443021_2",
    "stationName": "Rovina Bassa di Cancia CMT",
    "sensorMU": "mm",
    "sensorDescr": "Raingauge",
    "lon": 12.242643,
    "lat": 46.437176
  },
  {
    "id": "-2147467756_1",
    "stationName": "Brunico GSM",
    "sensorMU": "mm",
    "sensorDescr": "Raingauge",
    "lon": 11.9353,
    "lat": 46.8235
  },
  {
    "id": "-1937155403_2",
    "stationName": "Torrente Saccione SP142",
    "sensorMU": "mm",
    "sensorDescr": "Raingauge",
    "lon": 15.1205,
    "lat": 41.855835
  },
  {
    "id": "-1937155404_2",
    "stationName": "Torrente Candelaro SS272",
    "sensorMU": "mm",
    "sensorDescr": "Raingauge",
    "lon": 15.5015,
    "lat": 41.708668
  },
  {
    "id": "7626_2",
    "stationName": "Stresa-M.Mottarone",
    "sensorMU": "mm",
    "sensorDescr": "Raingauge",
    "lon": 8.453889,
    "lat": 45.885277
  },
  {
    "id": "-2147442141_2",
    "stationName": "Can. Asso",
    "sensorMU": "mm",
    "sensorDescr": "Raingauge",
    "lon": 18.072834,
    "lat": 40.153
  },
  {
    "id": "-2147442200_2",
    "stationName": "San Paolo Civitate",
    "sensorMU": "mm",
    "sensorDescr": "Raingauge",
    "lon": 15.346,
    "lat": 41.731834
  },
  {
    "id": "-2147467750_1",
    "stationName": "Vipiteno GSM",
    "sensorMU": "mm",
    "sensorDescr": "Raingauge",
    "lon": 11.4403,
    "lat": 46.8906
  },
  {
    "id": "-2147442210_2",
    "stationName": "Carlantino",
    "sensorMU": "mm",
    "sensorDescr": "Raingauge",
    "lon": 14.957167,
    "lat": 41.584
  },
  {
    "id": "-2147442208_2",
    "stationName": "Celenza Valfortore",
    "sensorMU": "mm",
    "sensorDescr": "Raingauge",
    "lon": 14.979333,
    "lat": 41.552166
  },
  {
    "id": "268441260_2",
    "stationName": "Lanzo Fua",
    "sensorMU": "mm",
    "sensorDescr": "Raingauge",
    "lon": 7.492778,
    "lat": 45.288612
  },
  {
    "id": "-2147442196_2",
    "stationName": "Volturara Appula",
    "sensorMU": "mm",
    "sensorDescr": "Raingauge",
    "lon": 15.0565,
    "lat": 41.486668
  },
  {
    "id": "268443529_2",
    "stationName": "Bobbio Pellice-C.Barant",
    "sensorMU": "mm",
    "sensorDescr": "Raingauge",
    "lon": 7.053056,
    "lat": 44.780556
  },
  {
    "id": "-2147442190_2",
    "stationName": "Masseria Modesti",
    "sensorMU": "mm",
    "sensorDescr": "Raingauge",
    "lon": 16.4155,
    "lat": 40.975834
  },
  {
    "id": "58818_1",
    "stationName": "Egna",
    "sensorMU": "mm",
    "sensorDescr": "Pluviometro",
    "lon": 11.262222,
    "lat": 46.315277
  },
  {
    "id": "58819_1",
    "stationName": "Longana",
    "sensorMU": "mm",
    "sensorDescr": "Pluviometro",
    "lon": 11.616111,
    "lat": 46.07
  },
  {
    "id": "-2147442203_2",
    "stationName": "Palagiano",
    "sensorMU": "mm",
    "sensorDescr": "Raingauge",
    "lon": 17.0205,
    "lat": 40.557835
  },
  {
    "id": "58820_1",
    "stationName": "Ponte Adige",
    "sensorMU": "mm",
    "sensorDescr": "Pluviometro",
    "lon": 11.3025,
    "lat": 46.480278
  },
  {
    "id": "268435505_2",
    "stationName": "Balme-Rifug.Gastaldi",
    "sensorMU": "mm",
    "sensorDescr": "Raingauge",
    "lon": 7.139167,
    "lat": 45.2975
  },
  {
    "id": "268480139_2",
    "stationName": "Ferentino",
    "sensorMU": "mm",
    "sensorDescr": "Raingauge",
    "lon": 13.261111,
    "lat": 41.703056
  },
  {
    "id": "268484667_2",
    "stationName": "Ferentino",
    "sensorMU": "mm",
    "sensorDescr": "Pluviometro 224",
    "lon": 13.261111,
    "lat": 41.703056
  },
  {
    "id": "58821_1",
    "stationName": "Riva del Garda",
    "sensorMU": "mm",
    "sensorDescr": "Pluviometro",
    "lon": 10.843889,
    "lat": 45.88361
  },
  {
    "id": "268479654_2",
    "stationName": "San Biagio Saracinisco",
    "sensorMU": "mm",
    "sensorDescr": "Raingauge",
    "lon": 13.948889,
    "lat": 41.61361
  },
  {
    "id": "268480294_2",
    "stationName": "Veroli",
    "sensorMU": "mm",
    "sensorDescr": "Raingauge",
    "lon": 13.408334,
    "lat": 41.672222
  },
  {
    "id": "268480142_2",
    "stationName": "Ceccano rlazio",
    "sensorMU": "mm",
    "sensorDescr": "Raingauge",
    "lon": 13.326389,
    "lat": 41.578888
  },
  {
    "id": "58822_1",
    "stationName": "Trento",
    "sensorMU": "mm",
    "sensorDescr": "Pluviometro",
    "lon": 11.115833,
    "lat": 46.07028
  },
  {
    "id": "268442303_2",
    "stationName": "Garessio-C.S.Bernar.",
    "sensorMU": "mm",
    "sensorDescr": "Raingauge",
    "lon": 8.044444,
    "lat": 44.1775
  },
  {
    "id": "268484650_2",
    "stationName": "Ceccano rlazio",
    "sensorMU": "mm",
    "sensorDescr": "Pluviometro 224",
    "lon": 13.326389,
    "lat": 41.578888
  },
  {
    "id": "268479645_2",
    "stationName": "Abbazia Trisulti",
    "sensorMU": "mm",
    "sensorDescr": "Raingauge",
    "lon": 13.405,
    "lat": 41.774723
  },
  {
    "id": "1073762680_1",
    "stationName": "Claviere",
    "sensorMU": "mm",
    "sensorDescr": "Raingauge",
    "lon": 6.75639,
    "lat": 44.9403
  },
  {
    "id": "268479648_2",
    "stationName": "Sgurgola",
    "sensorMU": "mm",
    "sensorDescr": "Raingauge",
    "lon": 13.150833,
    "lat": 41.685833
  },
  {
    "id": "268484671_2",
    "stationName": "Sgurgola",
    "sensorMU": "mm",
    "sensorDescr": "Pluviometro 224",
    "lon": 13.150833,
    "lat": 41.685833
  },
  {
    "id": "268441237_2",
    "stationName": "Locana-Bertodasco",
    "sensorMU": "mm",
    "sensorDescr": "Raingauge",
    "lon": 7.4238887,
    "lat": 45.438057
  },
  {
    "id": "268479657_2",
    "stationName": "Esperia",
    "sensorMU": "mm",
    "sensorDescr": "Raingauge",
    "lon": 13.6575,
    "lat": 41.386665
  },
  {
    "id": "268480145_2",
    "stationName": "Spigno Saturnia",
    "sensorMU": "mm",
    "sensorDescr": "Raingauge",
    "lon": 13.732778,
    "lat": 41.304165
  },
  {
    "id": "6862_2",
    "stationName": "Vinadio-Neraissa",
    "sensorMU": "mm",
    "sensorDescr": "Raingauge",
    "lon": 7.151389,
    "lat": 44.323612
  },
  {
    "id": "268479804_2",
    "stationName": "Manziana",
    "sensorMU": "mm",
    "sensorDescr": "Raingauge",
    "lon": 12.119722,
    "lat": 42.135834
  },
  {
    "id": "268443562_2",
    "stationName": "Bosio-Cap.Marcarolo",
    "sensorMU": "mm",
    "sensorDescr": "Raingauge",
    "lon": 8.767777,
    "lat": 44.56278
  },
  {
    "id": "1073765441_1",
    "stationName": "Sestriere Borgata",
    "sensorMU": "mm",
    "sensorDescr": "Raingauge",
    "lon": 6.88944,
    "lat": 44.9678
  },
  {
    "id": "268443554_2",
    "stationName": "Montechiaro d'Asti",
    "sensorMU": "mm",
    "sensorDescr": "Raingauge",
    "lon": 8.101666,
    "lat": 45.008335
  },
  {
    "id": "268479553_2",
    "stationName": "Fontana Liri Superiore",
    "sensorMU": "mm",
    "sensorDescr": "Raingauge",
    "lon": 13.5622225,
    "lat": 41.61028
  },
  {
    "id": "268484977_2",
    "stationName": "Fontana Liri Superiore",
    "sensorMU": "mm",
    "sensorDescr": "Pluviometro 224",
    "lon": 13.5622225,
    "lat": 41.61028
  },
  {
    "id": "268440805_2",
    "stationName": "Capannoli_CAE",
    "sensorMU": "mm",
    "sensorDescr": "Raingauge",
    "lon": 10.686079,
    "lat": 43.580036
  },
  {
    "id": "268479637_2",
    "stationName": "Settefrati",
    "sensorMU": "mm",
    "sensorDescr": "Raingauge",
    "lon": 13.852222,
    "lat": 41.670277
  },
  {
    "id": "268479546_2",
    "stationName": "Ripi",
    "sensorMU": "mm",
    "sensorDescr": "Raingauge",
    "lon": 13.4075,
    "lat": 41.60361
  },
  {
    "id": "1073765360_1",
    "stationName": "Bardonecchia Melezet",
    "sensorMU": "mm",
    "sensorDescr": "Raingauge",
    "lon": 6.68583,
    "lat": 45.0447
  },
  {
    "id": "268480148_2",
    "stationName": "Torrente Tafone",
    "sensorMU": "mm",
    "sensorDescr": "Raingauge",
    "lon": 11.5575,
    "lat": 42.37472
  },
  {
    "id": "268441027_2",
    "stationName": "Bocca d'Arno_CAE",
    "sensorMU": "mm",
    "sensorDescr": "Raingauge",
    "lon": 10.27825,
    "lat": 43.680008
  },
  {
    "id": "268479550_2",
    "stationName": "Paliano",
    "sensorMU": "mm",
    "sensorDescr": "Raingauge",
    "lon": 13.0622225,
    "lat": 41.79
  },
  {
    "id": "268485175_2",
    "stationName": "Paliano",
    "sensorMU": "mm",
    "sensorDescr": "Pluviometro 224",
    "lon": 13.0622225,
    "lat": 41.79
  },
  {
    "id": "268479651_2",
    "stationName": "SS.Cosma e Damiano",
    "sensorMU": "mm",
    "sensorDescr": "Raingauge",
    "lon": 13.789722,
    "lat": 41.274166
  },
  {
    "id": "268479808_2",
    "stationName": "Civitella Cesi",
    "sensorMU": "mm",
    "sensorDescr": "Raingauge",
    "lon": 12.028889,
    "lat": 42.214443
  },
  {
    "id": "268484941_2",
    "stationName": "Civitella Cesi",
    "sensorMU": "mm",
    "sensorDescr": "Pluviometro 224",
    "lon": 12.028889,
    "lat": 42.214443
  },
  {
    "id": "1073764778_1",
    "stationName": "Monviso",
    "sensorMU": "mm",
    "sensorDescr": "Raingauge",
    "lon": 7.08833,
    "lat": 44.6603
  },
  {
    "id": "268480025_2",
    "stationName": "Fiuggi",
    "sensorMU": "mm",
    "sensorDescr": "Raingauge",
    "lon": 13.235556,
    "lat": 41.780277
  },
  {
    "id": "268485115_2",
    "stationName": "Fiuggi",
    "sensorMU": "mm",
    "sensorDescr": "Pluviometro 224",
    "lon": 13.235556,
    "lat": 41.780277
  },
  {
    "id": "268442584_2",
    "stationName": "Vaiano Gamberame_CAE",
    "sensorMU": "mm",
    "sensorDescr": "Raingauge",
    "lon": 11.127091,
    "lat": 43.922962
  },
  {
    "id": "268440745_2",
    "stationName": "Castelfiorentino_CAE",
    "sensorMU": "mm",
    "sensorDescr": "Raingauge",
    "lon": 10.968303,
    "lat": 43.603977
  },
  {
    "id": "268479556_2",
    "stationName": "Cervaro",
    "sensorMU": "mm",
    "sensorDescr": "Raingauge",
    "lon": 13.905556,
    "lat": 41.49
  },
  {
    "id": "268439764_2",
    "stationName": "Montevarchi_CAE",
    "sensorMU": "mm",
    "sensorDescr": "Raingauge",
    "lon": 11.566265,
    "lat": 43.541023
  },
  {
    "id": "268480022_2",
    "stationName": "S.Vito Romano",
    "sensorMU": "mm",
    "sensorDescr": "Raingauge",
    "lon": 12.971945,
    "lat": 41.88278
  },
  {
    "id": "268485112_2",
    "stationName": "S.Vito Romano",
    "sensorMU": "mm",
    "sensorDescr": "Pluviometro 224",
    "lon": 12.971945,
    "lat": 41.88278
  },
  {
    "id": "1073762868_1",
    "stationName": "RhemeND-Chanavey-Dora Rhemes",
    "sensorMU": "mm",
    "sensorDescr": "Raingauge",
    "lon": 7.1233926,
    "lat": 45.578796
  },
  {
    "id": "268480019_2",
    "stationName": "Campo di Carne",
    "sensorMU": "mm",
    "sensorDescr": "Raingauge",
    "lon": 12.640555,
    "lat": 41.559723
  },
  {
    "id": "268484818_2",
    "stationName": "Campo di Carne",
    "sensorMU": "mm",
    "sensorDescr": "Pluviometro 224",
    "lon": 12.640555,
    "lat": 41.559723
  },
  {
    "id": "268441009_2",
    "stationName": "Pontedera_CAE",
    "sensorMU": "mm",
    "sensorDescr": "Raingauge",
    "lon": 10.632534,
    "lat": 43.666065
  },
  {
    "id": "268480016_2",
    "stationName": "Pomezia",
    "sensorMU": "mm",
    "sensorDescr": "Raingauge",
    "lon": 12.5008335,
    "lat": 41.663887
  },
  {
    "id": "19970_1",
    "stationName": "Boa Odas Italia 1 Ist.AutomNav",
    "sensorMU": "mm",
    "sensorDescr": "Raingauge",
    "lon": 9.113333,
    "lat": 43.815
  },
  {
    "id": "268484802_2",
    "stationName": "Pomezia",
    "sensorMU": "mm",
    "sensorDescr": "Pluviometro 224",
    "lon": 12.5008335,
    "lat": 41.663887
  },
  {
    "id": "268482220_2",
    "stationName": "Corchiano",
    "sensorMU": "mm",
    "sensorDescr": "Raingauge",
    "lon": 12.348611,
    "lat": 42.352222
  },
  {
    "id": "268440945_2",
    "stationName": "Pontelungo_CAE",
    "sensorMU": "mm",
    "sensorDescr": "Raingauge",
    "lon": 10.892354,
    "lat": 43.924335
  },
  {
    "id": "268480028_2",
    "stationName": "Frosinone",
    "sensorMU": "mm",
    "sensorDescr": "Raingauge",
    "lon": 13.315278,
    "lat": 41.639168
  },
  {
    "id": "268480309_2",
    "stationName": "Gaeta",
    "sensorMU": "mm",
    "sensorDescr": "Raingauge",
    "lon": 13.574722,
    "lat": 41.205555
  },
  {
    "id": "20078_1",
    "stationName": "Caminata - Conscenti",
    "sensorMU": "mm",
    "sensorDescr": "Raingauge",
    "lon": 9.393889,
    "lat": 44.345554
  },
  {
    "id": "268442461_2",
    "stationName": "Poggibonsi_CAE",
    "sensorMU": "mm",
    "sensorDescr": "Raingauge",
    "lon": 11.1305685,
    "lat": 43.470234
  },
  {
    "id": "268480274_2",
    "stationName": "Lanuvio",
    "sensorMU": "mm",
    "sensorDescr": "Raingauge",
    "lon": 12.661944,
    "lat": 41.64611
  },
  {
    "id": "268479740_2",
    "stationName": "Montasola",
    "sensorMU": "mm",
    "sensorDescr": "Raingauge",
    "lon": 12.69,
    "lat": 42.379444
  },
  {
    "id": "5252_2",
    "stationName": "S.Giovanni Monte",
    "sensorMU": "mm",
    "sensorDescr": "Raingauge",
    "lon": 10.598919,
    "lat": 43.68138
  },
  {
    "id": "-2147463554_1",
    "stationName": "Chiavari-Caperana",
    "sensorMU": "mm",
    "sensorDescr": "Raingauge",
    "lon": 9.345278,
    "lat": 44.321945
  },
  {
    "id": "268479660_2",
    "stationName": "Osteria di Castro",
    "sensorMU": "mm",
    "sensorDescr": "Raingauge",
    "lon": 13.406944,
    "lat": 41.51278
  },
  {
    "id": "268443206_2",
    "stationName": "S.Giovanni Valle_CAE",
    "sensorMU": "mm",
    "sensorDescr": "Raingauge",
    "lon": 10.583248,
    "lat": 43.68403
  },
  {
    "id": "268484983_2",
    "stationName": "Osteria di Castro",
    "sensorMU": "mm",
    "sensorDescr": "Pluviometro 224",
    "lon": 13.406944,
    "lat": 41.51278
  },
  {
    "id": "268480277_2",
    "stationName": "Borgo Montello",
    "sensorMU": "mm",
    "sensorDescr": "Raingauge",
    "lon": 12.769722,
    "lat": 41.5125
  },
  {
    "id": "-2147463515_1",
    "stationName": "Genova - Bolzaneto",
    "sensorMU": "mm",
    "sensorDescr": "Raingauge",
    "lon": 8.89561,
    "lat": 44.4553
  },
  {
    "id": "268483485_2",
    "stationName": "Borgo Montello",
    "sensorMU": "mm",
    "sensorDescr": "Raingauge",
    "lon": 12.769722,
    "lat": 41.5125
  },
  {
    "id": "20163_1",
    "stationName": "Ist. Nautico Savona",
    "sensorMU": "mm",
    "sensorDescr": "Raingauge",
    "lon": 8.48305,
    "lat": 44.3062
  },
  {
    "id": "20170_1",
    "stationName": "Pero",
    "sensorMU": "mm",
    "sensorDescr": "Raingauge",
    "lon": 8.556667,
    "lat": 44.381668
  },
  {
    "id": "268440803_2",
    "stationName": "Vallucciole_CAE",
    "sensorMU": "mm",
    "sensorDescr": "Raingauge",
    "lon": 11.656944,
    "lat": 43.841667
  },
  {
    "id": "268439803_2",
    "stationName": "Stia P._CAE",
    "sensorMU": "mm",
    "sensorDescr": "Raingauge",
    "lon": 11.71,
    "lat": 43.799168
  },
  {
    "id": "268441304_2",
    "stationName": "Montemignaio_CAE",
    "sensorMU": "mm",
    "sensorDescr": "Raingauge",
    "lon": 11.624444,
    "lat": 43.740833
  },
  {
    "id": "268485228_2",
    "stationName": "Montalto di Castro meteo",
    "sensorMU": "mm",
    "sensorDescr": "Pluviometro",
    "lon": 11.633333,
    "lat": 42.329723
  },
  {
    "id": "-2147463472_1",
    "stationName": "Ellera - Foglietto",
    "sensorMU": "mm",
    "sensorDescr": "Raingauge",
    "lon": 8.4667,
    "lat": 44.36638
  },
  {
    "id": "268443350_2",
    "stationName": "Ortignano_CAE",
    "sensorMU": "mm",
    "sensorDescr": "Raingauge",
    "lon": 11.752778,
    "lat": 43.683334
  },
  {
    "id": "268441353_2",
    "stationName": "Camaldoli_CAE",
    "sensorMU": "mm",
    "sensorDescr": "Raingauge",
    "lon": 11.813889,
    "lat": 43.809444
  },
  {
    "id": "20190_1",
    "stationName": "Turchino",
    "sensorMU": "mm",
    "sensorDescr": "Raingauge",
    "lon": 8.736667,
    "lat": 44.484722
  },
  {
    "id": "268443380_2",
    "stationName": "Badia Prataglia_CAE",
    "sensorMU": "mm",
    "sensorDescr": "Raingauge",
    "lon": 11.8758335,
    "lat": 43.79139
  },
  {
    "id": "268480031_2",
    "stationName": "Itri",
    "sensorMU": "mm",
    "sensorDescr": "Raingauge",
    "lon": 13.525,
    "lat": 41.268055
  },
  {
    "id": "20195_1",
    "stationName": "Pegli",
    "sensorMU": "mm",
    "sensorDescr": "Raingauge",
    "lon": 8.819722,
    "lat": 44.430832
  },
  {
    "id": "268442593_2",
    "stationName": "Pollino_CAE",
    "sensorMU": "mm",
    "sensorDescr": "Raingauge",
    "lon": 11.827778,
    "lat": 43.711388
  },
  {
    "id": "268441051_2",
    "stationName": "La Verna_CAE",
    "sensorMU": "mm",
    "sensorDescr": "Raingauge",
    "lon": 11.929722,
    "lat": 43.710278
  },
  {
    "id": "268480681_2",
    "stationName": "Ischia di Castro",
    "sensorMU": "mm",
    "sensorDescr": "Raingauge",
    "lon": 11.763611,
    "lat": 42.552776
  },
  {
    "id": "-2147463449_1",
    "stationName": "Monte Cappellino",
    "sensorMU": "mm",
    "sensorDescr": "Raingauge",
    "lon": 8.95687,
    "lat": 44.55062
  },
  {
    "id": "268482505_2",
    "stationName": "Osteria Nuova",
    "sensorMU": "mm",
    "sensorDescr": "Raingauge",
    "lon": 12.299723,
    "lat": 42.031666
  },
  {
    "id": "20219_1",
    "stationName": "Bavari",
    "sensorMU": "mm",
    "sensorDescr": "Raingauge",
    "lon": 9.019444,
    "lat": 44.430557
  },
  {
    "id": "268442505_2",
    "stationName": "Salutio_CAE",
    "sensorMU": "mm",
    "sensorDescr": "Raingauge",
    "lon": 11.815278,
    "lat": 43.61889
  },
  {
    "id": "268439729_2",
    "stationName": "Capezzine_CAE",
    "sensorMU": "mm",
    "sensorDescr": "Raingauge",
    "lon": 11.930555,
    "lat": 43.183334
  },
  {
    "id": "268480690_2",
    "stationName": "Mandrione",
    "sensorMU": "mm",
    "sensorDescr": "Raingauge",
    "lon": 11.7919445,
    "lat": 42.377224
  },
  {
    "id": "20223_1",
    "stationName": "Madonna della Guardia",
    "sensorMU": "mm",
    "sensorDescr": "Raingauge",
    "lon": 8.863056,
    "lat": 44.489166
  },
  {
    "id": "268440740_2",
    "stationName": "Bettolle_CAE",
    "sensorMU": "mm",
    "sensorDescr": "Raingauge",
    "lon": 11.801389,
    "lat": 43.204166
  },
  {
    "id": "268439757_2",
    "stationName": "Cortona_CAE",
    "sensorMU": "mm",
    "sensorDescr": "Raingauge",
    "lon": 11.990278,
    "lat": 43.27222
  },
  {
    "id": "268479801_2",
    "stationName": "Rignano Flaminio",
    "sensorMU": "mm",
    "sensorDescr": "Raingauge",
    "lon": 12.475278,
    "lat": 42.209167
  },
  {
    "id": "20227_1",
    "stationName": "Scoffera",
    "sensorMU": "mm",
    "sensorDescr": "Raingauge",
    "lon": 9.114722,
    "lat": 44.4725
  },
  {
    "id": "268485245_2",
    "stationName": "Rignano Flaminio",
    "sensorMU": "mm",
    "sensorDescr": "Pluviometro 224",
    "lon": 12.475278,
    "lat": 42.209167
  },
  {
    "id": "20232_1",
    "stationName": "Passo della Cisa",
    "sensorMU": "mm",
    "sensorDescr": "Raingauge",
    "lon": 9.92667,
    "lat": 44.4708
  },
  {
    "id": "268441239_2",
    "stationName": "Castiglion Fiorent._CAE",
    "sensorMU": "mm",
    "sensorDescr": "Raingauge",
    "lon": 11.916667,
    "lat": 43.344444
  },
  {
    "id": "268479463_2",
    "stationName": "Treia a Civita Castellana",
    "sensorMU": "mm",
    "sensorDescr": "Raingauge",
    "lon": 12.428056,
    "lat": 42.291943
  },
  {
    "id": "268443282_2",
    "stationName": "Monte S.Savino_CAE",
    "sensorMU": "mm",
    "sensorDescr": "Raingauge",
    "lon": 11.736111,
    "lat": 43.33889
  },
  {
    "id": "20364_1",
    "stationName": "Polanesi",
    "sensorMU": "mm",
    "sensorDescr": "Raingauge",
    "lon": 9.124722,
    "lat": 44.365833
  },
  {
    "id": "268441296_2",
    "stationName": "Arezzo_CAE",
    "sensorMU": "mm",
    "sensorDescr": "Raingauge",
    "lon": 11.895833,
    "lat": 43.480278
  },
  {
    "id": "268480786_2",
    "stationName": "Rota",
    "sensorMU": "mm",
    "sensorDescr": "Raingauge",
    "lon": 12.008611,
    "lat": 42.15278
  },
  {
    "id": "268443340_2",
    "stationName": "Laterina_CAE",
    "sensorMU": "mm",
    "sensorDescr": "Raingauge",
    "lon": 11.719444,
    "lat": 43.505554
  },
  {
    "id": "268442532_2",
    "stationName": "Badia Agnano_CAE",
    "sensorMU": "mm",
    "sensorDescr": "Raingauge",
    "lon": 11.641111,
    "lat": 43.434723
  },
  {
    "id": "268440995_2",
    "stationName": "Nusenna Chianti_CAE",
    "sensorMU": "mm",
    "sensorDescr": "Raingauge",
    "lon": 11.528055,
    "lat": 43.449165
  },
  {
    "id": "268482240_2",
    "stationName": "Tragliatella rlazio",
    "sensorMU": "mm",
    "sensorDescr": "Raingauge",
    "lon": 12.198055,
    "lat": 42.02
  },
  {
    "id": "268442580_2",
    "stationName": "Villa dell'Olio_CAE",
    "sensorMU": "mm",
    "sensorDescr": "Raingauge",
    "lon": 11.608334,
    "lat": 43.594444
  },
  {
    "id": "20368_1",
    "stationName": "Cavi Panoramica",
    "sensorMU": "mm",
    "sensorDescr": "Raingauge",
    "lon": 9.373611,
    "lat": 44.296944
  },
  {
    "id": "268441519_2",
    "stationName": "Renacci Fattoria_CAE",
    "sensorMU": "mm",
    "sensorDescr": "Raingauge",
    "lon": 11.516666,
    "lat": 43.591667
  },
  {
    "id": "268479111_2",
    "stationName": "Canino rlazio",
    "sensorMU": "mm",
    "sensorDescr": "Raingauge",
    "lon": 11.748889,
    "lat": 42.464443
  },
  {
    "id": "268440699_2",
    "stationName": "Il Palagio_CAE",
    "sensorMU": "mm",
    "sensorDescr": "Raingauge",
    "lon": 11.430555,
    "lat": 43.610554
  },
  {
    "id": "268439717_2",
    "stationName": "Pian di Sco'_CAE",
    "sensorMU": "mm",
    "sensorDescr": "Raingauge",
    "lon": 11.552778,
    "lat": 43.648613
  },
  {
    "id": "268480136_2",
    "stationName": "Cecchina",
    "sensorMU": "mm",
    "sensorDescr": "Raingauge",
    "lon": 12.65,
    "lat": 41.70028
  },
  {
    "id": "268484821_2",
    "stationName": "Cecchina",
    "sensorMU": "mm",
    "sensorDescr": "Pluviometro 224",
    "lon": 12.65,
    "lat": 41.70028
  },
  {
    "id": "268441215_2",
    "stationName": "Vallombrosa_CAE",
    "sensorMU": "mm",
    "sensorDescr": "Raingauge",
    "lon": 11.551389,
    "lat": 43.730556
  },
  {
    "id": "268479743_2",
    "stationName": "Paglia a Proceno",
    "sensorMU": "mm",
    "sensorDescr": "Raingauge",
    "lon": 11.856389,
    "lat": 42.764168
  },
  {
    "id": "20372_1",
    "stationName": "Vernazza",
    "sensorMU": "mm",
    "sensorDescr": "Raingauge",
    "lon": 9.683333,
    "lat": 44.136112
  },
  {
    "id": "268442736_2",
    "stationName": "Cavallina_CAE",
    "sensorMU": "mm",
    "sensorDescr": "Raingauge",
    "lon": 11.229722,
    "lat": 43.98
  },
  {
    "id": "268485160_2",
    "stationName": "Paglia a Proceno",
    "sensorMU": "mm",
    "sensorDescr": "Pluviometro 224",
    "lon": 11.856389,
    "lat": 42.764168
  },
  {
    "id": "268441252_2",
    "stationName": "Marcoiano_CAE",
    "sensorMU": "mm",
    "sensorDescr": "Raingauge",
    "lon": 11.3025,
    "lat": 44.05472
  },
  {
    "id": "268478711_2",
    "stationName": "Ronciglione rlazio",
    "sensorMU": "mm",
    "sensorDescr": "Raingauge",
    "lon": 12.204166,
    "lat": 42.29639
  },
  {
    "id": "268442511_2",
    "stationName": "Vaglia_CAE",
    "sensorMU": "mm",
    "sensorDescr": "Raingauge",
    "lon": 11.285277,
    "lat": 43.90972
  },
  {
    "id": "268485443_2",
    "stationName": "Ronciglione rlazio",
    "sensorMU": "mm",
    "sensorDescr": "Pluviometro 224",
    "lon": 12.204166,
    "lat": 42.29639
  },
  {
    "id": "268440844_2",
    "stationName": "S.Piero a Sieve P._CAE",
    "sensorMU": "mm",
    "sensorDescr": "Raingauge",
    "lon": 11.319167,
    "lat": 43.97889
  },
  {
    "id": "-2147462489_1",
    "stationName": "Ateleta",
    "sensorMU": "mm",
    "sensorDescr": "Raingauge",
    "lon": 14.195278,
    "lat": 41.860832
  },
  {
    "id": "268442545_2",
    "stationName": "S.Agata del Mugello_CAE",
    "sensorMU": "mm",
    "sensorDescr": "Raingauge",
    "lon": 11.333333,
    "lat": 44.02222
  },
  {
    "id": "268480788_2",
    "stationName": "Fosso di Pantanello ad Ostia",
    "sensorMU": "mm",
    "sensorDescr": "Raingauge",
    "lon": 12.360833,
    "lat": 41.717224
  },
  {
    "id": "268441480_2",
    "stationName": "Razzuolo_CAE",
    "sensorMU": "mm",
    "sensorDescr": "Raingauge",
    "lon": 11.450556,
    "lat": 44.081112
  },
  {
    "id": "-2147462491_1",
    "stationName": "Atri",
    "sensorMU": "mm",
    "sensorDescr": "Raingauge",
    "lon": 13.940556,
    "lat": 42.57389
  },
  {
    "id": "268443528_2",
    "stationName": "Ronta_CAE",
    "sensorMU": "mm",
    "sensorDescr": "Raingauge",
    "lon": 11.435555,
    "lat": 44.008335
  },
  {
    "id": "268441402_2",
    "stationName": "Borgo S.Lorenzo_CAE",
    "sensorMU": "mm",
    "sensorDescr": "Raingauge",
    "lon": 11.383611,
    "lat": 43.952778
  },
  {
    "id": "1073786969_2",
    "stationName": "Aprilia",
    "sensorMU": "mm",
    "sensorDescr": "Raingauge",
    "lon": 12.648334,
    "lat": 41.593887
  },
  {
    "id": "-2147462487_1",
    "stationName": "Bagnaturo",
    "sensorMU": "mm",
    "sensorDescr": "Raingauge",
    "lon": 13.918889,
    "lat": 42.083332
  },
  {
    "id": "268441176_2",
    "stationName": "Villore_CAE",
    "sensorMU": "mm",
    "sensorDescr": "Raingauge",
    "lon": 11.5402775,
    "lat": 43.966667
  },
  {
    "id": "1073787225_2",
    "stationName": "Lago di Nemi",
    "sensorMU": "mm",
    "sensorDescr": "Raingauge",
    "lon": 12.699166,
    "lat": 41.718887
  },
  {
    "id": "-2147462485_1",
    "stationName": "Barrea",
    "sensorMU": "mm",
    "sensorDescr": "Raingauge",
    "lon": 13.985556,
    "lat": 41.75
  },
  {
    "id": "268443209_2",
    "stationName": "Consuma_CAE",
    "sensorMU": "mm",
    "sensorDescr": "Raingauge",
    "lon": 11.588889,
    "lat": 43.780277
  },
  {
    "id": "-2147462483_1",
    "stationName": "Beffi",
    "sensorMU": "mm",
    "sensorDescr": "Raingauge",
    "lon": 13.685555,
    "lat": 42.2
  },
  {
    "id": "1073786997_2",
    "stationName": "Ponte Ferraioli",
    "sensorMU": "mm",
    "sensorDescr": "Raingauge",
    "lon": 13.098889,
    "lat": 41.462223
  },
  {
    "id": "-2147462481_1",
    "stationName": "Bellante",
    "sensorMU": "mm",
    "sensorDescr": "Raingauge",
    "lon": 13.781944,
    "lat": 42.733334
  },
  {
    "id": "268441231_2",
    "stationName": "Le Croci_CAE",
    "sensorMU": "mm",
    "sensorDescr": "Raingauge",
    "lon": 11.273334,
    "lat": 44.006668
  },
  {
    "id": "1073787011_2",
    "stationName": "Priverno",
    "sensorMU": "mm",
    "sensorDescr": "Raingauge",
    "lon": 13.185833,
    "lat": 41.470833
  },
  {
    "id": "-2147462479_1",
    "stationName": "Boiano",
    "sensorMU": "mm",
    "sensorDescr": "Raingauge",
    "lon": 14.4669,
    "lat": 41.4872
  },
  {
    "id": "1073786990_2",
    "stationName": "Norma",
    "sensorMU": "mm",
    "sensorDescr": "Raingauge",
    "lon": 12.970834,
    "lat": 41.586945
  },
  {
    "id": "-2147462477_1",
    "stationName": "Bomba diga",
    "sensorMU": "mm",
    "sensorDescr": "Raingauge",
    "lon": 14.368889,
    "lat": 42.033333
  },
  {
    "id": "1073787018_2",
    "stationName": "Vallecorsa",
    "sensorMU": "mm",
    "sensorDescr": "Raingauge",
    "lon": 13.408611,
    "lat": 41.44389
  },
  {
    "id": "-2147462475_1",
    "stationName": "Bussi Officine",
    "sensorMU": "mm",
    "sensorDescr": "Raingauge",
    "lon": 13.852222,
    "lat": 42.2
  },
  {
    "id": "1073787164_2",
    "stationName": "Rio Cassano",
    "sensorMU": "mm",
    "sensorDescr": "Raingauge",
    "lon": 13.026389,
    "lat": 41.372776
  },
  {
    "id": "-2147462473_1",
    "stationName": "Campana",
    "sensorMU": "mm",
    "sensorDescr": "Raingauge",
    "lon": 13.5525,
    "lat": 42.2425
  },
  {
    "id": "1073786983_2",
    "stationName": "Cisterna di Latina",
    "sensorMU": "mm",
    "sensorDescr": "Raingauge",
    "lon": 12.823334,
    "lat": 41.589443
  },
  {
    "id": "268495980_1",
    "stationName": "Campli, Castelnuovo",
    "sensorMU": "mm",
    "sensorDescr": "Raingauge",
    "lon": 13.691667,
    "lat": 42.72972
  },
  {
    "id": "1073786976_2",
    "stationName": "Cori",
    "sensorMU": "mm",
    "sensorDescr": "Raingauge",
    "lon": 12.9152775,
    "lat": 41.641388
  },
  {
    "id": "-2147462471_1",
    "stationName": "Campli, Castelnuovo",
    "sensorMU": "mm",
    "sensorDescr": "Raingauge",
    "lon": 13.691667,
    "lat": 42.72972
  },
  {
    "id": "268439828_2",
    "stationName": "Monte di Fo'_CAE",
    "sensorMU": "mm",
    "sensorDescr": "Raingauge",
    "lon": 11.277778,
    "lat": 44.08472
  },
  {
    "id": "1073787004_2",
    "stationName": "Giuliano di Roma",
    "sensorMU": "mm",
    "sensorDescr": "Raingauge",
    "lon": 13.279445,
    "lat": 41.54111
  },
  {
    "id": "268443502_2",
    "stationName": "Mangona_CAE",
    "sensorMU": "mm",
    "sensorDescr": "Raingauge",
    "lon": 11.198611,
    "lat": 44.043888
  },
  {
    "id": "1073786815_2",
    "stationName": "Santa Severa",
    "sensorMU": "mm",
    "sensorDescr": "Raingauge",
    "lon": 11.978333,
    "lat": 42.012222
  },
  {
    "id": "-2147462469_1",
    "stationName": "Campo di Giove",
    "sensorMU": "mm",
    "sensorDescr": "Raingauge",
    "lon": 14.052222,
    "lat": 42.016666
  },
  {
    "id": "1073786829_2",
    "stationName": "Ladispoli rlazio",
    "sensorMU": "mm",
    "sensorDescr": "Raingauge",
    "lon": 12.07,
    "lat": 41.955
  },
  {
    "id": "-2147462467_1",
    "stationName": "Capestrano",
    "sensorMU": "mm",
    "sensorDescr": "Raingauge",
    "lon": 13.757222,
    "lat": 42.245834
  },
  {
    "id": "268443237_2",
    "stationName": "Incisa Valle_CAE",
    "sensorMU": "mm",
    "sensorDescr": "Raingauge",
    "lon": 11.45607,
    "lat": 43.690872
  },
  {
    "id": "1073786836_2",
    "stationName": "Trevignano Romano",
    "sensorMU": "mm",
    "sensorDescr": "Raingauge",
    "lon": 12.246388,
    "lat": 42.157223
  },
  {
    "id": "-2147462465_1",
    "stationName": "Carapelle Calvisio",
    "sensorMU": "mm",
    "sensorDescr": "Raingauge",
    "lon": 13.674167,
    "lat": 42.25
  },
  {
    "id": "1073787151_2",
    "stationName": "Valentano",
    "sensorMU": "mm",
    "sensorDescr": "Raingauge",
    "lon": 11.833889,
    "lat": 42.556946
  },
  {
    "id": "-2147462463_1",
    "stationName": "Casacalenda",
    "sensorMU": "mm",
    "sensorDescr": "Raingauge",
    "lon": 14.8561,
    "lat": 41.7247
  },
  {
    "id": "268442555_2",
    "stationName": "Firenze Genio Civile_CAE",
    "sensorMU": "mm",
    "sensorDescr": "Raingauge",
    "lon": 11.255555,
    "lat": 43.77778
  },
  {
    "id": "268439749_2",
    "stationName": "Poggio Aglione_CAE",
    "sensorMU": "mm",
    "sensorDescr": "Raingauge",
    "lon": 10.920278,
    "lat": 43.538055
  },
  {
    "id": "1073791400_2",
    "stationName": "Vetralla",
    "sensorMU": "mm",
    "sensorDescr": "Pluviometro",
    "lon": 12.055,
    "lat": 42.32
  },
  {
    "id": "-2147462461_1",
    "stationName": "Casalincontrada",
    "sensorMU": "mm",
    "sensorDescr": "Raingauge",
    "lon": 14.135834,
    "lat": 42.283333
  },
  {
    "id": "268443216_2",
    "stationName": "Ponte a Olmo_CAE",
    "sensorMU": "mm",
    "sensorDescr": "Raingauge",
    "lon": 11.296667,
    "lat": 44.058887
  },
  {
    "id": "268436232_2",
    "stationName": "S.Caterina",
    "sensorMU": "mm",
    "sensorDescr": "Raingauge",
    "lon": 10.497778,
    "lat": 46.414722
  },
  {
    "id": "1073787192_2",
    "stationName": "Monte Romano",
    "sensorMU": "mm",
    "sensorDescr": "Raingauge",
    "lon": 11.894167,
    "lat": 42.268612
  },
  {
    "id": "-2147462459_1",
    "stationName": "Casamaina",
    "sensorMU": "mm",
    "sensorDescr": "Raingauge",
    "lon": 13.385834,
    "lat": 42.266666
  },
  {
    "id": "1073787232_2",
    "stationName": "Maccarese rlazio",
    "sensorMU": "mm",
    "sensorDescr": "Raingauge",
    "lon": 12.219444,
    "lat": 41.8175
  },
  {
    "id": "-2147462457_1",
    "stationName": "Casoli",
    "sensorMU": "mm",
    "sensorDescr": "Raingauge",
    "lon": 14.2913885,
    "lat": 42.118332
  },
  {
    "id": "1073787136_2",
    "stationName": "Marta",
    "sensorMU": "mm",
    "sensorDescr": "Raingauge",
    "lon": 11.932777,
    "lat": 42.53472
  },
  {
    "id": "-2147462455_1",
    "stationName": "Castel di Sangro",
    "sensorMU": "mm",
    "sensorDescr": "Raingauge",
    "lon": 14.1025,
    "lat": 41.783333
  },
  {
    "id": "-2147462453_1",
    "stationName": "Castelli",
    "sensorMU": "mm",
    "sensorDescr": "Raingauge",
    "lon": 13.715,
    "lat": 42.479443
  },
  {
    "id": "779_2",
    "stationName": "Forni",
    "sensorMU": "mm",
    "sensorDescr": "Raingauge",
    "lon": 10.563889,
    "lat": 46.420834
  },
  {
    "id": "-2147462451_1",
    "stationName": "Cepagatti",
    "sensorMU": "mm",
    "sensorDescr": "Raingauge",
    "lon": 14.057222,
    "lat": 42.33972
  },
  {
    "id": "-2147462431_1",
    "stationName": "Cermignano",
    "sensorMU": "mm",
    "sensorDescr": "Raingauge",
    "lon": 13.773056,
    "lat": 42.57389
  },
  {
    "id": "1073786822_2",
    "stationName": "Sasso Furbara",
    "sensorMU": "mm",
    "sensorDescr": "Raingauge",
    "lon": 12.045834,
    "lat": 42.05472
  },
  {
    "id": "-2147461415_1",
    "stationName": "Chiauci METEO",
    "sensorMU": "mm",
    "sensorDescr": "Raingauge",
    "lon": 14.3928,
    "lat": 41.6761
  },
  {
    "id": "268436226_2",
    "stationName": "Arnoga",
    "sensorMU": "mm",
    "sensorDescr": "Raingauge",
    "lon": 10.2425,
    "lat": 46.459446
  },
  {
    "id": "1073787111_2",
    "stationName": "Bolsena",
    "sensorMU": "mm",
    "sensorDescr": "Raingauge",
    "lon": 11.972222,
    "lat": 42.65333
  },
  {
    "id": "-2147462427_1",
    "stationName": "Chieuti Scalo",
    "sensorMU": "mm",
    "sensorDescr": "Raingauge",
    "lon": 15.155278,
    "lat": 41.906113
  },
  {
    "id": "129_2",
    "stationName": "Spriana",
    "sensorMU": "mm",
    "sensorDescr": "Raingauge",
    "lon": 9.867673,
    "lat": 46.21313
  },
  {
    "id": "-2147462425_1",
    "stationName": "Citta' S.Angelo",
    "sensorMU": "mm",
    "sensorDescr": "Raingauge",
    "lon": 14.0525,
    "lat": 42.516666
  },
  {
    "id": "268437780_2",
    "stationName": "Palu'",
    "sensorMU": "mm",
    "sensorDescr": "Raingauge",
    "lon": 9.882222,
    "lat": 46.2925
  },
  {
    "id": "1073787200_2",
    "stationName": "Salisano",
    "sensorMU": "mm",
    "sensorDescr": "Raingauge",
    "lon": 12.7525,
    "lat": 42.260555
  },
  {
    "id": "-2147462423_1",
    "stationName": "Civitacampomarano",
    "sensorMU": "mm",
    "sensorDescr": "Raingauge",
    "lon": 14.6931,
    "lat": 41.7756
  },
  {
    "id": "1073787207_2",
    "stationName": "Sorgenti Capore",
    "sensorMU": "mm",
    "sensorDescr": "Raingauge",
    "lon": 12.810278,
    "lat": 42.233334
  },
  {
    "id": "-2147462421_1",
    "stationName": "Civitella del Tronto",
    "sensorMU": "mm",
    "sensorDescr": "Raingauge",
    "lon": 13.6455555,
    "lat": 42.75722
  },
  {
    "id": "1073787214_2",
    "stationName": "Passo Corese ETG",
    "sensorMU": "mm",
    "sensorDescr": "Raingauge",
    "lon": 12.658611,
    "lat": 42.166943
  },
  {
    "id": "-2147462419_1",
    "stationName": "Colletorto",
    "sensorMU": "mm",
    "sensorDescr": "Raingauge",
    "lon": 14.9806,
    "lat": 41.6522
  },
  {
    "id": "1073787034_2",
    "stationName": "Lago di Albano",
    "sensorMU": "mm",
    "sensorDescr": "Raingauge",
    "lon": 12.653889,
    "lat": 41.746113
  },
  {
    "id": "-2147462417_1",
    "stationName": "Fano a Corno",
    "sensorMU": "mm",
    "sensorDescr": "Raingauge",
    "lon": 13.618889,
    "lat": 42.483334
  },
  {
    "id": "-2147462415_1",
    "stationName": "Fara F.Petri",
    "sensorMU": "mm",
    "sensorDescr": "Raingauge",
    "lon": 14.185833,
    "lat": 42.25
  },
  {
    "id": "1073787104_2",
    "stationName": "Sutri",
    "sensorMU": "mm",
    "sensorDescr": "Raingauge",
    "lon": 12.224444,
    "lat": 42.241665
  },
  {
    "id": "-2147462413_1",
    "stationName": "Fara S.Martino",
    "sensorMU": "mm",
    "sensorDescr": "Raingauge",
    "lon": 14.2025,
    "lat": 42.083332
  },
  {
    "id": "1073787097_2",
    "stationName": "Nepi",
    "sensorMU": "mm",
    "sensorDescr": "Raingauge",
    "lon": 12.337778,
    "lat": 42.24111
  },
  {
    "id": "-2147462411_1",
    "stationName": "Farindola",
    "sensorMU": "mm",
    "sensorDescr": "Raingauge",
    "lon": 13.819167,
    "lat": 42.433334
  },
  {
    "id": "-2147462409_1",
    "stationName": "Gessopalena",
    "sensorMU": "mm",
    "sensorDescr": "Raingauge",
    "lon": 14.269167,
    "lat": 42.05
  },
  {
    "id": "268477701_2",
    "stationName": "Silla Corpo Frana",
    "sensorMU": "mm",
    "sensorDescr": "Raingauge",
    "lon": 10.976111,
    "lat": 44.200554
  },
  {
    "id": "-2147462309_1",
    "stationName": "Guardia Vomano",
    "sensorMU": "mm",
    "sensorDescr": "Raingauge",
    "lon": 13.895,
    "lat": 42.62361
  },
  {
    "id": "268495972_1",
    "stationName": "Guardiagrele",
    "sensorMU": "mm",
    "sensorDescr": "Raingauge",
    "lon": 14.215028,
    "lat": 42.18828
  },
  {
    "id": "-2147462407_1",
    "stationName": "Guardiagrele",
    "sensorMU": "mm",
    "sensorDescr": "Pluviometro",
    "lon": 14.215028,
    "lat": 42.18828
  },
  {
    "id": "-2147462405_1",
    "stationName": "Guardiaregia",
    "sensorMU": "mm",
    "sensorDescr": "Raingauge",
    "lon": 14.5344,
    "lat": 41.4175
  },
  {
    "id": "268437309_2",
    "stationName": "Gerola-Pescegallo",
    "sensorMU": "mm",
    "sensorDescr": "Raingauge",
    "lon": 9.578889,
    "lat": 46.025
  },
  {
    "id": "-2147462403_1",
    "stationName": "Guglionesi",
    "sensorMU": "mm",
    "sensorDescr": "Raingauge",
    "lon": 14.918889,
    "lat": 41.916668
  },
  {
    "id": "-2147462401_1",
    "stationName": "Lama dei Peligni",
    "sensorMU": "mm",
    "sensorDescr": "Raingauge",
    "lon": 14.185555,
    "lat": 42.033333
  },
  {
    "id": "268495979_1",
    "stationName": "Lanciano",
    "sensorMU": "mm",
    "sensorDescr": "Raingauge",
    "lon": 14.388472,
    "lat": 42.218193
  },
  {
    "id": "-2147462399_1",
    "stationName": "Lanciano",
    "sensorMU": "mm",
    "sensorDescr": "Raingauge",
    "lon": 14.388472,
    "lat": 42.218193
  },
  {
    "id": "-2147462397_1",
    "stationName": "Larino",
    "sensorMU": "mm",
    "sensorDescr": "Raingauge",
    "lon": 14.9011,
    "lat": 41.7872
  },
  {
    "id": "-2147462395_1",
    "stationName": "Lentella",
    "sensorMU": "mm",
    "sensorDescr": "Raingauge",
    "lon": 14.676666,
    "lat": 41.98611
  },
  {
    "id": "-2147462393_1",
    "stationName": "Lucito",
    "sensorMU": "mm",
    "sensorDescr": "Raingauge",
    "lon": 14.6856,
    "lat": 41.7333
  },
  {
    "id": "268477656_2",
    "stationName": "Guagnino",
    "sensorMU": "mm",
    "sensorDescr": "Raingauge",
    "lon": 12.211389,
    "lat": 44.688057
  },
  {
    "id": "-2147462391_1",
    "stationName": "Mafalda",
    "sensorMU": "mm",
    "sensorDescr": "Raingauge",
    "lon": 14.709167,
    "lat": 41.922222
  },
  {
    "id": "-2147462389_1",
    "stationName": "Manoppello",
    "sensorMU": "mm",
    "sensorDescr": "Raingauge",
    "lon": 14.053611,
    "lat": 42.239723
  },
  {
    "id": "-2147462387_1",
    "stationName": "Montefino",
    "sensorMU": "mm",
    "sensorDescr": "Raingauge",
    "lon": 13.866111,
    "lat": 42.535
  },
  {
    "id": "268480528_2",
    "stationName": "Ponza",
    "sensorMU": "mm",
    "sensorDescr": "Raingauge",
    "lon": 12.969722,
    "lat": 40.929443
  },
  {
    "id": "-2147462385_1",
    "stationName": "Montenero Valcocchiara",
    "sensorMU": "mm",
    "sensorDescr": "Raingauge",
    "lon": 14.0689,
    "lat": 41.7167
  },
  {
    "id": "-2147462307_1",
    "stationName": "Montesilvano",
    "sensorMU": "mm",
    "sensorDescr": "Raingauge",
    "lon": 14.1425,
    "lat": 42.4975
  },
  {
    "id": "-2147462383_1",
    "stationName": "Moscufo",
    "sensorMU": "mm",
    "sensorDescr": "Raingauge",
    "lon": 14.040833,
    "lat": 42.41528
  },
  {
    "id": "268478234_2",
    "stationName": "Bric Castellaro",
    "sensorMU": "mm",
    "sensorDescr": "Raingauge",
    "lon": 8.7913885,
    "lat": 44.644722
  },
  {
    "id": "-2147462381_1",
    "stationName": "Orsogna",
    "sensorMU": "mm",
    "sensorDescr": "Raingauge",
    "lon": 14.285556,
    "lat": 42.216667
  },
  {
    "id": "268495890_1",
    "stationName": "Ortona",
    "sensorMU": "mm",
    "sensorDescr": "Raingauge",
    "lon": 14.391806,
    "lat": 42.34911
  },
  {
    "id": "-2147462379_1",
    "stationName": "Ortona",
    "sensorMU": "mm",
    "sensorDescr": "Raingauge",
    "lon": 14.391806,
    "lat": 42.34911
  },
  {
    "id": "-2147462375_1",
    "stationName": "Pagliaroli",
    "sensorMU": "mm",
    "sensorDescr": "Raingauge",
    "lon": 13.521944,
    "lat": 42.63639
  },
  {
    "id": "268437280_2",
    "stationName": "Oga-S.Colombano",
    "sensorMU": "mm",
    "sensorDescr": "Raingauge",
    "lon": 10.343333,
    "lat": 46.461113
  },
  {
    "id": "-2147462373_1",
    "stationName": "Paglieta",
    "sensorMU": "mm",
    "sensorDescr": "Raingauge",
    "lon": 14.495833,
    "lat": 42.1675
  },
  {
    "id": "268461927_2",
    "stationName": "Brescia - ITAS pastori",
    "sensorMU": "mm",
    "sensorDescr": "Raingauge",
    "lon": 10.261389,
    "lat": 45.525276
  },
  {
    "id": "268479589_2",
    "stationName": "Brescia - ITAS pastori",
    "sensorMU": "mm",
    "sensorDescr": "Raingauge",
    "lon": 10.261389,
    "lat": 45.525276
  },
  {
    "id": "-2147462371_1",
    "stationName": "Palmoli",
    "sensorMU": "mm",
    "sensorDescr": "Raingauge",
    "lon": 14.576667,
    "lat": 41.93611
  },
  {
    "id": "-2147462369_1",
    "stationName": "Pennapiedimonte",
    "sensorMU": "mm",
    "sensorDescr": "Raingauge",
    "lon": 14.190556,
    "lat": 42.157776
  },
  {
    "id": "268495958_1",
    "stationName": "Pescosansonesco, Pesco Nuovo",
    "sensorMU": "mm",
    "sensorDescr": "Raingauge",
    "lon": 13.886528,
    "lat": 42.251
  },
  {
    "id": "-2147462367_1",
    "stationName": "Pescosansonesco, Pesco Nuovo",
    "sensorMU": "mm",
    "sensorDescr": "Raingauge",
    "lon": 13.886528,
    "lat": 42.251
  },
  {
    "id": "268461941_2",
    "stationName": "Canevino",
    "sensorMU": "mm",
    "sensorDescr": "Raingauge",
    "lon": 9.275833,
    "lat": 44.940834
  },
  {
    "id": "-2147462305_1",
    "stationName": "Pietracamela",
    "sensorMU": "mm",
    "sensorDescr": "Raingauge",
    "lon": 13.524167,
    "lat": 42.51389
  },
  {
    "id": "-2147462365_1",
    "stationName": "Pineto",
    "sensorMU": "mm",
    "sensorDescr": "Raingauge",
    "lon": 14.029445,
    "lat": 42.603333
  },
  {
    "id": "268444224_2",
    "stationName": "Casalbuttano",
    "sensorMU": "mm",
    "sensorDescr": "Raingauge",
    "lon": 9.964167,
    "lat": 45.25611
  },
  {
    "id": "268461942_2",
    "stationName": "Casalbuttano",
    "sensorMU": "mm",
    "sensorDescr": "Raingauge",
    "lon": 9.964167,
    "lat": 45.25611
  },
  {
    "id": "-2147462363_1",
    "stationName": "Popoli",
    "sensorMU": "mm",
    "sensorDescr": "Raingauge",
    "lon": 13.819167,
    "lat": 42.171944
  },
  {
    "id": "-2147462359_1",
    "stationName": "Portocannone",
    "sensorMU": "mm",
    "sensorDescr": "Raingauge",
    "lon": 15.0022,
    "lat": 41.9167
  },
  {
    "id": "-2147462361_1",
    "stationName": "Pretara",
    "sensorMU": "mm",
    "sensorDescr": "Raingauge",
    "lon": 13.668889,
    "lat": 42.483334
  },
  {
    "id": "268461943_2",
    "stationName": "Case Pirli Ponte di Legno",
    "sensorMU": "mm",
    "sensorDescr": "Raingauge",
    "lon": 10.531111,
    "lat": 46.289722
  },
  {
    "id": "-2147462357_1",
    "stationName": "Riccia",
    "sensorMU": "mm",
    "sensorDescr": "Raingauge",
    "lon": 14.8383,
    "lat": 41.4936
  },
  {
    "id": "-2147462355_1",
    "stationName": "Rocca Pia",
    "sensorMU": "mm",
    "sensorDescr": "Raingauge",
    "lon": 13.985556,
    "lat": 41.933334
  },
  {
    "id": "-2147462353_1",
    "stationName": "Rocca S.Maria",
    "sensorMU": "mm",
    "sensorDescr": "Raingauge",
    "lon": 13.503612,
    "lat": 42.67361
  },
  {
    "id": "268479708_2",
    "stationName": "Castello d'Agogna",
    "sensorMU": "mm",
    "sensorDescr": "Raingauge",
    "lon": 8.700556,
    "lat": 45.246944
  },
  {
    "id": "-2147462303_1",
    "stationName": "Roccacasale",
    "sensorMU": "mm",
    "sensorDescr": "Raingauge",
    "lon": 13.885555,
    "lat": 42.116665
  },
  {
    "id": "-2147462351_1",
    "stationName": "Rosello",
    "sensorMU": "mm",
    "sensorDescr": "Raingauge",
    "lon": 14.352222,
    "lat": 41.9
  },
  {
    "id": "268437334_2",
    "stationName": "Aprica",
    "sensorMU": "mm",
    "sensorDescr": "Raingauge",
    "lon": 10.148334,
    "lat": 46.129166
  },
  {
    "id": "-2147462349_1",
    "stationName": "Roseto degli Abruzzi",
    "sensorMU": "mm",
    "sensorDescr": "Raingauge",
    "lon": 13.994445,
    "lat": 42.666668
  },
  {
    "id": "-2147462347_1",
    "stationName": "Roseto Valfortore",
    "sensorMU": "mm",
    "sensorDescr": "Raingauge",
    "lon": 13.885555,
    "lat": 41.34722
  },
  {
    "id": "-2147462345_1",
    "stationName": "S.Bartolomeo in Galdo",
    "sensorMU": "mm",
    "sensorDescr": "Raingauge",
    "lon": 15.021667,
    "lat": 41.39111
  },
  {
    "id": "-2147462301_1",
    "stationName": "S.Elia a Pianisi",
    "sensorMU": "mm",
    "sensorDescr": "Raingauge",
    "lon": 14.868889,
    "lat": 41.616665
  },
  {
    "id": "-2147462343_1",
    "stationName": "S.Eufemia a Maiella",
    "sensorMU": "mm",
    "sensorDescr": "Raingauge",
    "lon": 14.0275,
    "lat": 42.127224
  },
  {
    "id": "-2147462341_1",
    "stationName": "Salle ETG",
    "sensorMU": "mm",
    "sensorDescr": "Raingauge",
    "lon": 13.952222,
    "lat": 42.166668
  },
  {
    "id": "-2147462339_1",
    "stationName": "Scafa",
    "sensorMU": "mm",
    "sensorDescr": "Raingauge",
    "lon": 14.002222,
    "lat": 42.266666
  },
  {
    "id": "268444226_2",
    "stationName": "Cavargna",
    "sensorMU": "mm",
    "sensorDescr": "Raingauge",
    "lon": 9.111111,
    "lat": 46.09139
  },
  {
    "id": "-2147462337_1",
    "stationName": "Scanno",
    "sensorMU": "mm",
    "sensorDescr": "Raingauge",
    "lon": 13.885834,
    "lat": 41.9
  },
  {
    "id": "268495936_1",
    "stationName": "Scoppito",
    "sensorMU": "mm",
    "sensorDescr": "Raingauge",
    "lon": 13.261944,
    "lat": 42.371918
  },
  {
    "id": "-2147462335_1",
    "stationName": "Scoppito",
    "sensorMU": "mm",
    "sensorDescr": "Raingauge",
    "lon": 13.261944,
    "lat": 42.371918
  },
  {
    "id": "-2147462333_1",
    "stationName": "Silvi Alta",
    "sensorMU": "mm",
    "sensorDescr": "Raingauge",
    "lon": 14.038889,
    "lat": 42.582222
  },
  {
    "id": "-2147462331_1",
    "stationName": "Silvi Marina",
    "sensorMU": "mm",
    "sensorDescr": "Raingauge",
    "lon": 14.0725,
    "lat": 42.565277
  },
  {
    "id": "-2147462329_1",
    "stationName": "Spinete",
    "sensorMU": "mm",
    "sensorDescr": "Raingauge",
    "lon": 14.485556,
    "lat": 41.54639
  },
  {
    "id": "-2147462327_1",
    "stationName": "Spoltore",
    "sensorMU": "mm",
    "sensorDescr": "Raingauge",
    "lon": 14.127778,
    "lat": 42.455555
  },
  {
    "id": "-2147462299_1",
    "stationName": "Torino di Sangro",
    "sensorMU": "mm",
    "sensorDescr": "Raingauge",
    "lon": 14.540833,
    "lat": 42.17472
  },
  {
    "id": "268469406_2",
    "stationName": "Cavaria",
    "sensorMU": "mm",
    "sensorDescr": "Raingauge",
    "lon": 8.806945,
    "lat": 45.689445
  },
  {
    "id": "268495940_1",
    "stationName": "Tornimparte",
    "sensorMU": "mm",
    "sensorDescr": "Raingauge",
    "lon": 13.289556,
    "lat": 42.290638
  },
  {
    "id": "-2147462325_1",
    "stationName": "Tornimparte",
    "sensorMU": "mm",
    "sensorDescr": "Raingauge",
    "lon": 13.289556,
    "lat": 42.290638
  },
  {
    "id": "-2147462323_1",
    "stationName": "Torrebruna",
    "sensorMU": "mm",
    "sensorDescr": "Raingauge",
    "lon": 14.535556,
    "lat": 41.866665
  },
  {
    "id": "268461957_2",
    "stationName": "Gardone Val Trompia P",
    "sensorMU": "mm",
    "sensorDescr": "Raingauge",
    "lon": 10.188056,
    "lat": 45.696667
  },
  {
    "id": "-2147462319_1",
    "stationName": "Tossicia ETG",
    "sensorMU": "mm",
    "sensorDescr": "Raingauge",
    "lon": 13.5875,
    "lat": 42.540554
  },
  {
    "id": "-2147462317_1",
    "stationName": "Vastogirardi",
    "sensorMU": "mm",
    "sensorDescr": "Raingauge",
    "lon": 14.2522,
    "lat": 41.7667
  },
  {
    "id": "766_2",
    "stationName": "Frodolfo",
    "sensorMU": "mm",
    "sensorDescr": "Raingauge",
    "lon": 10.399241,
    "lat": 46.46329
  },
  {
    "id": "-2147462315_1",
    "stationName": "Vinchiaturo",
    "sensorMU": "mm",
    "sensorDescr": "Raingauge",
    "lon": 14.5856,
    "lat": 41.4833
  },
  {
    "id": "268461958_2",
    "stationName": "Goito",
    "sensorMU": "mm",
    "sensorDescr": "Raingauge",
    "lon": 10.663055,
    "lat": 45.26361
  },
  {
    "id": "-2147462313_1",
    "stationName": "Villa Celiera ETG",
    "sensorMU": "mm",
    "sensorDescr": "Raingauge",
    "lon": 13.863889,
    "lat": 42.36722
  },
  {
    "id": "763_2",
    "stationName": "Presa Adda",
    "sensorMU": "mm",
    "sensorDescr": "Raingauge",
    "lon": 10.355083,
    "lat": 46.47986
  },
  {
    "id": "-2147462311_1",
    "stationName": "Villa S.Maria",
    "sensorMU": "mm",
    "sensorDescr": "Raingauge",
    "lon": 14.352222,
    "lat": 41.95028
  },
  {
    "id": "268461959_2",
    "stationName": "Grabiasca",
    "sensorMU": "mm",
    "sensorDescr": "Raingauge",
    "lon": 9.948055,
    "lat": 46.00778
  },
  {
    "id": "753_2",
    "stationName": "Le Prese",
    "sensorMU": "mm",
    "sensorDescr": "Raingauge",
    "lon": 10.354423,
    "lat": 46.350117
  },
  {
    "id": "-2147462297_1",
    "stationName": "Villa Vallucci",
    "sensorMU": "mm",
    "sensorDescr": "Raingauge",
    "lon": 13.818889,
    "lat": 42.608334
  },
  {
    "id": "268444242_2",
    "stationName": "Le Prese",
    "sensorMU": "mm",
    "sensorDescr": "Raingauge",
    "lon": 10.354423,
    "lat": 46.350117
  },
  {
    "id": "-2147462295_1",
    "stationName": "Villalago",
    "sensorMU": "mm",
    "sensorDescr": "Raingauge",
    "lon": 13.818889,
    "lat": 41.933334
  },
  {
    "id": "268461961_2",
    "stationName": "Lago Truzzo S. Giacomo Filippo",
    "sensorMU": "mm",
    "sensorDescr": "Raingauge",
    "lon": 9.319445,
    "lat": 46.359165
  },
  {
    "id": "-2147462293_1",
    "stationName": "Volturara Appula",
    "sensorMU": "mm",
    "sensorDescr": "Raingauge",
    "lon": 15.063889,
    "lat": 41.469444
  },
  {
    "id": "744_2",
    "stationName": "S.Giuseppe",
    "sensorMU": "mm",
    "sensorDescr": "Raingauge",
    "lon": 9.836111,
    "lat": 46.29972
  },
  {
    "id": "-2147462077_1",
    "stationName": "Agnone",
    "sensorMU": "mm",
    "sensorDescr": "Raingauge",
    "lon": 14.3689,
    "lat": 41.8
  },
  {
    "id": "746_2",
    "stationName": "Campo Franscia",
    "sensorMU": "mm",
    "sensorDescr": "Raingauge",
    "lon": 9.9175,
    "lat": 46.288612
  },
  {
    "id": "748_2",
    "stationName": "Chiesa Valmalenco",
    "sensorMU": "mm",
    "sensorDescr": "Raingauge",
    "lon": 9.852692,
    "lat": 46.265476
  },
  {
    "id": "-2147462075_1",
    "stationName": "Anversa degli Abruzzi",
    "sensorMU": "mm",
    "sensorDescr": "Raingauge",
    "lon": 13.802714,
    "lat": 41.99436
  },
  {
    "id": "5569_2",
    "stationName": "Bardonecchia-C.Frejus",
    "sensorMU": "mm",
    "sensorDescr": "Raingauge",
    "lon": 6.70306,
    "lat": 45.1197
  },
  {
    "id": "-2147462073_1",
    "stationName": "Azienda Salatto",
    "sensorMU": "mm",
    "sensorDescr": "Raingauge",
    "lon": 15.164444,
    "lat": 41.905
  },
  {
    "id": "34098_1",
    "stationName": "Biois a Cencenighe",
    "sensorMU": "mm",
    "sensorDescr": "Raingauge",
    "lon": 11.966461,
    "lat": 46.352367
  },
  {
    "id": "-2147462071_1",
    "stationName": "Baranello",
    "sensorMU": "mm",
    "sensorDescr": "Raingauge",
    "lon": 14.5547,
    "lat": 41.53
  },
  {
    "id": "-2147462069_1",
    "stationName": "Castelnuovo Daunia",
    "sensorMU": "mm",
    "sensorDescr": "Raingauge",
    "lon": 15.161111,
    "lat": 41.591946
  },
  {
    "id": "268480171_2",
    "stationName": "Landriano",
    "sensorMU": "mm",
    "sensorDescr": "Raingauge",
    "lon": 9.2675,
    "lat": 45.320835
  },
  {
    "id": "-2147462067_1",
    "stationName": "Campolieto",
    "sensorMU": "mm",
    "sensorDescr": "Raingauge",
    "lon": 14.7675,
    "lat": 41.635
  },
  {
    "id": "5270_2",
    "stationName": "Oulx-Gad",
    "sensorMU": "mm",
    "sensorDescr": "Raingauge",
    "lon": 6.8541665,
    "lat": 45.04639
  },
  {
    "id": "-2147462065_1",
    "stationName": "Carovilli",
    "sensorMU": "mm",
    "sensorDescr": "Raingauge",
    "lon": 14.2689,
    "lat": 41.7167
  },
  {
    "id": "-2147462063_1",
    "stationName": "Casoli, Diga",
    "sensorMU": "mm",
    "sensorDescr": "Raingauge",
    "lon": 14.257946,
    "lat": 42.09567
  },
  {
    "id": "1073764212_1",
    "stationName": "Arvier-Chamencon-DValgrisenche",
    "sensorMU": "mm",
    "sensorDescr": "Raingauge",
    "lon": 7.121504,
    "lat": 45.68385
  },
  {
    "id": "1073764215_1",
    "stationName": "Gressoney-L.T.-Courtlys-T.Lys",
    "sensorMU": "mm",
    "sensorDescr": "Raingauge",
    "lon": 7.8075547,
    "lat": 45.868385
  },
  {
    "id": "5844_2",
    "stationName": "Salbertrand-Graviere",
    "sensorMU": "mm",
    "sensorDescr": "Raingauge",
    "lon": 6.9066668,
    "lat": 45.06389
  },
  {
    "id": "-2147462061_1",
    "stationName": "Castel del Monte",
    "sensorMU": "mm",
    "sensorDescr": "Raingauge",
    "lon": 13.727184,
    "lat": 42.365845
  },
  {
    "id": "22453_1",
    "stationName": "Colombiera",
    "sensorMU": "mm",
    "sensorDescr": "Raingauge",
    "lon": 9.973108,
    "lat": 44.063602
  },
  {
    "id": "-2147462059_1",
    "stationName": "Castelvetere",
    "sensorMU": "mm",
    "sensorDescr": "Raingauge",
    "lon": 14.931945,
    "lat": 41.44278
  },
  {
    "id": "268482258_2",
    "stationName": "Lavena Ponte Tresa",
    "sensorMU": "mm",
    "sensorDescr": "Raingauge",
    "lon": 8.850278,
    "lat": 45.97167
  },
  {
    "id": "-2147462057_1",
    "stationName": "Castropignano Meteo",
    "sensorMU": "mm",
    "sensorDescr": "Raingauge",
    "lon": 14.5489,
    "lat": 41.6119
  },
  {
    "id": "-2147462055_1",
    "stationName": "Collepietro",
    "sensorMU": "mm",
    "sensorDescr": "Raingauge",
    "lon": 13.779926,
    "lat": 42.22101
  },
  {
    "id": "7419_2",
    "stationName": "Bardonecchia-Preric.",
    "sensorMU": "mm",
    "sensorDescr": "Raingauge",
    "lon": 6.727778,
    "lat": 45.07611
  },
  {
    "id": "-2147462053_1",
    "stationName": "Cupello",
    "sensorMU": "mm",
    "sensorDescr": "Raingauge",
    "lon": 14.666587,
    "lat": 42.06567
  },
  {
    "id": "268444244_2",
    "stationName": "Lurago Marinone",
    "sensorMU": "mm",
    "sensorDescr": "Raingauge",
    "lon": 8.9725,
    "lat": 45.710556
  },
  {
    "id": "-2147462051_1",
    "stationName": "Montemitro",
    "sensorMU": "mm",
    "sensorDescr": "Raingauge",
    "lon": 14.6522,
    "lat": 41.8833
  },
  {
    "id": "268461971_2",
    "stationName": "Lurago Marinone",
    "sensorMU": "mm",
    "sensorDescr": "Raingauge",
    "lon": 8.9725,
    "lat": 45.710556
  },
  {
    "id": "-2147462049_1",
    "stationName": "Montenerodomo",
    "sensorMU": "mm",
    "sensorDescr": "Raingauge",
    "lon": 14.248695,
    "lat": 41.989883
  },
  {
    "id": "-2147462047_1",
    "stationName": "Nereto",
    "sensorMU": "mm",
    "sensorDescr": "Raingauge",
    "lon": 13.813056,
    "lat": 42.821667
  },
  {
    "id": "-2147462045_1",
    "stationName": "Crognaleto, Nerito",
    "sensorMU": "mm",
    "sensorDescr": "Raingauge",
    "lon": 13.477812,
    "lat": 42.54844
  },
  {
    "id": "1073765463_1",
    "stationName": "Bionaz-Place Moulin",
    "sensorMU": "mm",
    "sensorDescr": "Raingauge",
    "lon": 7.49,
    "lat": 45.9
  },
  {
    "id": "10931_2",
    "stationName": "Barcenisio",
    "sensorMU": "mm",
    "sensorDescr": "Raingauge",
    "lon": 6.985,
    "lat": 45.191666
  },
  {
    "id": "1073765517_1",
    "stationName": "Gressoney-S.J.-Weissmatten",
    "sensorMU": "mm",
    "sensorDescr": "Raingauge",
    "lon": 7.825,
    "lat": 45.7483
  },
  {
    "id": "268445219_2",
    "stationName": "Molteno",
    "sensorMU": "mm",
    "sensorDescr": "Raingauge",
    "lon": 9.305833,
    "lat": 45.781666
  },
  {
    "id": "268469416_2",
    "stationName": "Molteno",
    "sensorMU": "mm",
    "sensorDescr": "Raingauge",
    "lon": 9.305833,
    "lat": 45.781666
  },
  {
    "id": "6064_2",
    "stationName": "Chiomonte-Finiere",
    "sensorMU": "mm",
    "sensorDescr": "Raingauge",
    "lon": 6.9666667,
    "lat": 45.113888
  },
  {
    "id": "1073765485_1",
    "stationName": "Rhemes SG-Dora Rhemes",
    "sensorMU": "mm",
    "sensorDescr": "Raingauge",
    "lon": 7.152872,
    "lat": 45.649654
  },
  {
    "id": "268482256_2",
    "stationName": "Olgiate Comasco",
    "sensorMU": "mm",
    "sensorDescr": "Raingauge",
    "lon": 8.972777,
    "lat": 45.773056
  },
  {
    "id": "1073765492_1",
    "stationName": "Valsavarenche-Molere-Savara",
    "sensorMU": "mm",
    "sensorDescr": "Raingauge",
    "lon": 7.201909,
    "lat": 45.64736
  },
  {
    "id": "1073765499_1",
    "stationName": "Aymavilles-Vieyes",
    "sensorMU": "mm",
    "sensorDescr": "Raingauge",
    "lon": 7.25083,
    "lat": 45.6497
  },
  {
    "id": "5948_2",
    "stationName": "Susa-Pietrastretta",
    "sensorMU": "mm",
    "sensorDescr": "Raingauge",
    "lon": 7.0494447,
    "lat": 45.14528
  },
  {
    "id": "268444249_2",
    "stationName": "Osnago",
    "sensorMU": "mm",
    "sensorDescr": "Raingauge",
    "lon": 9.381111,
    "lat": 45.664444
  },
  {
    "id": "1073765469_1",
    "stationName": "Gressoney-L.T.-Gabiet",
    "sensorMU": "mm",
    "sensorDescr": "Raingauge",
    "lon": 7.84861,
    "lat": 45.8522
  },
  {
    "id": "268461976_2",
    "stationName": "Osnago",
    "sensorMU": "mm",
    "sensorDescr": "Raingauge",
    "lon": 9.381111,
    "lat": 45.664444
  },
  {
    "id": "268461977_2",
    "stationName": "Ponte Cene - Cene",
    "sensorMU": "mm",
    "sensorDescr": "Raingauge",
    "lon": 9.821667,
    "lat": 45.784443
  },
  {
    "id": "-2147462043_1",
    "stationName": "Palena 1",
    "sensorMU": "mm",
    "sensorDescr": "Raingauge",
    "lon": 14.1375,
    "lat": 41.983612
  },
  {
    "id": "1073765527_1",
    "stationName": "Issime-Capoluogo-Lys",
    "sensorMU": "mm",
    "sensorDescr": "Raingauge",
    "lon": 7.856381,
    "lat": 45.687298
  },
  {
    "id": "8796_2",
    "stationName": "Porlezza",
    "sensorMU": "mm",
    "sensorDescr": "Raingauge",
    "lon": 9.140833,
    "lat": 46.038612
  },
  {
    "id": "7989_2",
    "stationName": "Borgone-Ponte Dora",
    "sensorMU": "mm",
    "sensorDescr": "Raingauge",
    "lon": 7.267778,
    "lat": 45.1125
  },
  {
    "id": "268461979_2",
    "stationName": "Porlezza",
    "sensorMU": "mm",
    "sensorDescr": "Raingauge",
    "lon": 9.140833,
    "lat": 46.038612
  },
  {
    "id": "268461987_2",
    "stationName": "Rivolta d'Adda",
    "sensorMU": "mm",
    "sensorDescr": "Raingauge",
    "lon": 9.5211115,
    "lat": 45.444168
  },
  {
    "id": "1073765458_1",
    "stationName": "Pontboset-Fournier",
    "sensorMU": "mm",
    "sensorDescr": "Raingauge",
    "lon": 7.68,
    "lat": 45.6047
  },
  {
    "id": "5702_2",
    "stationName": "Avigliana-Grancia",
    "sensorMU": "mm",
    "sensorDescr": "Raingauge",
    "lon": 7.386389,
    "lat": 45.093887
  },
  {
    "id": "1073765539_1",
    "stationName": "Fenis-Clavalite'",
    "sensorMU": "mm",
    "sensorDescr": "Raingauge",
    "lon": 7.49778,
    "lat": 45.6869
  },
  {
    "id": "1400_2",
    "stationName": "Arba",
    "sensorMU": "mm",
    "sensorDescr": "Raingauge",
    "lon": 12.819644,
    "lat": 46.12576
  },
  {
    "id": "268479833_2",
    "stationName": "S.Giacomo Monno",
    "sensorMU": "mm",
    "sensorDescr": "Raingauge",
    "lon": 10.319167,
    "lat": 46.2475
  },
  {
    "id": "-2147462041_1",
    "stationName": "Penne 1",
    "sensorMU": "mm",
    "sensorDescr": "Raingauge",
    "lon": 13.903334,
    "lat": 42.44361
  },
  {
    "id": "1073765534_1",
    "stationName": "Champdepraz-Chevrere",
    "sensorMU": "mm",
    "sensorDescr": "Raingauge",
    "lon": 7.61306,
    "lat": 45.6836
  },
  {
    "id": "-2147462021_1",
    "stationName": "Pescara, Colli",
    "sensorMU": "mm",
    "sensorDescr": "Raingauge",
    "lon": 14.194432,
    "lat": 42.46878
  },
  {
    "id": "268461993_2",
    "stationName": "San Martino Valmasino",
    "sensorMU": "mm",
    "sensorDescr": "Raingauge",
    "lon": 9.6325,
    "lat": 46.238056
  },
  {
    "id": "1073767614_1",
    "stationName": "Valtournenche-Goillet",
    "sensorMU": "mm",
    "sensorDescr": "Raingauge",
    "lon": 7.66278,
    "lat": 45.9311
  },
  {
    "id": "12510_2",
    "stationName": "Arzenutto",
    "sensorMU": "mm",
    "sensorDescr": "Raingauge",
    "lon": 12.866954,
    "lat": 46.014263
  },
  {
    "id": "-2147462039_1",
    "stationName": "Pescasseroli",
    "sensorMU": "mm",
    "sensorDescr": "Raingauge",
    "lon": 13.792222,
    "lat": 41.809444
  },
  {
    "id": "268479719_2",
    "stationName": "S.Colombano al Lambro",
    "sensorMU": "mm",
    "sensorDescr": "Raingauge",
    "lon": 9.488889,
    "lat": 45.171944
  },
  {
    "id": "-2147462037_1",
    "stationName": "Pescopennataro",
    "sensorMU": "mm",
    "sensorDescr": "Raingauge",
    "lon": 14.3022,
    "lat": 41.8833
  },
  {
    "id": "9078_2",
    "stationName": "Zuiano",
    "sensorMU": "mm",
    "sensorDescr": "Raingauge",
    "lon": 12.712855,
    "lat": 45.873955
  },
  {
    "id": "268479720_2",
    "stationName": "S.Colombano al Lambro",
    "sensorMU": "mm",
    "sensorDescr": "Raingauge",
    "lon": 9.488889,
    "lat": 45.171944
  },
  {
    "id": "1073767164_1",
    "stationName": "Sauze D'Oulx",
    "sensorMU": "mm",
    "sensorDescr": "Raingauge",
    "lon": 6.84861,
    "lat": 45.0278
  },
  {
    "id": "1265_2",
    "stationName": "Mure",
    "sensorMU": "mm",
    "sensorDescr": "Raingauge",
    "lon": 12.800166,
    "lat": 45.828403
  },
  {
    "id": "1433_2",
    "stationName": "Forcate",
    "sensorMU": "mm",
    "sensorDescr": "Raingauge",
    "lon": 12.589947,
    "lat": 45.99777
  },
  {
    "id": "1266_2",
    "stationName": "Vacile",
    "sensorMU": "mm",
    "sensorDescr": "Raingauge",
    "lon": 12.893189,
    "lat": 46.132168
  },
  {
    "id": "-2147462035_1",
    "stationName": "Teramo, Ponte Vomano",
    "sensorMU": "mm",
    "sensorDescr": "Raingauge",
    "lon": 13.768573,
    "lat": 42.608864
  },
  {
    "id": "-2147462033_1",
    "stationName": "Pretoro",
    "sensorMU": "mm",
    "sensorDescr": "Raingauge",
    "lon": 14.142312,
    "lat": 42.221973
  },
  {
    "id": "-2147462031_1",
    "stationName": "Ripabottoni",
    "sensorMU": "mm",
    "sensorDescr": "Raingauge",
    "lon": 14.8103,
    "lat": 41.6886
  },
  {
    "id": "4961_2",
    "stationName": "Sacile Livenza",
    "sensorMU": "mm",
    "sensorDescr": "Raingauge",
    "lon": 12.502984,
    "lat": 45.943672
  },
  {
    "id": "268462001_2",
    "stationName": "Valbondione",
    "sensorMU": "mm",
    "sensorDescr": "Raingauge",
    "lon": 10.038889,
    "lat": 46.06389
  },
  {
    "id": "-2147462029_1",
    "stationName": "Rocca di Mezzo",
    "sensorMU": "mm",
    "sensorDescr": "Raingauge",
    "lon": 13.520278,
    "lat": 42.199722
  },
  {
    "id": "-2147462025_1",
    "stationName": "S.Vito METEO",
    "sensorMU": "mm",
    "sensorDescr": "Raingauge",
    "lon": 14.443889,
    "lat": 42.298054
  },
  {
    "id": "268476313_2",
    "stationName": "Squarzare",
    "sensorMU": "mm",
    "sensorDescr": "Raingauge",
    "lon": 12.617667,
    "lat": 45.843884
  },
  {
    "id": "1073767675_1",
    "stationName": "Ayas-Alpe Courthoud",
    "sensorMU": "mm",
    "sensorDescr": "Raingauge",
    "lon": 7.71528,
    "lat": 45.8736
  },
  {
    "id": "268469430_2",
    "stationName": "Vercana",
    "sensorMU": "mm",
    "sensorDescr": "Raingauge",
    "lon": 9.325833,
    "lat": 46.183334
  },
  {
    "id": "1927_2",
    "stationName": "Piancavallo",
    "sensorMU": "mm",
    "sensorDescr": "Raingauge",
    "lon": 12.531667,
    "lat": 46.107777
  },
  {
    "id": "268435570_2",
    "stationName": "Barcis",
    "sensorMU": "mm",
    "sensorDescr": "Raingauge",
    "lon": 12.5525,
    "lat": 46.183613
  },
  {
    "id": "-2147462023_1",
    "stationName": "Termine",
    "sensorMU": "mm",
    "sensorDescr": "Raingauge",
    "lon": 13.2075,
    "lat": 42.445
  },
  {
    "id": "268495921_1",
    "stationName": "Alanno",
    "sensorMU": "mm",
    "sensorDescr": "Raingauge",
    "lon": 13.985167,
    "lat": 42.295444
  },
  {
    "id": "-2147459652_1",
    "stationName": "Alanno",
    "sensorMU": "mm",
    "sensorDescr": "Raingauge",
    "lon": 13.985167,
    "lat": 42.295444
  },
  {
    "id": "1278_2",
    "stationName": "Prescudin",
    "sensorMU": "mm",
    "sensorDescr": "Raingauge",
    "lon": 12.481667,
    "lat": 46.185555
  },
  {
    "id": "268478668_2",
    "stationName": "Sant'Elia-Jano",
    "sensorMU": "mm",
    "sensorDescr": "Raingauge",
    "lon": 16.582777,
    "lat": 38.95222
  },
  {
    "id": "268478666_2",
    "stationName": "Gimigliano",
    "sensorMU": "mm",
    "sensorDescr": "Raingauge",
    "lon": 16.540277,
    "lat": 38.974445
  },
  {
    "id": "268478665_2",
    "stationName": "Maierato",
    "sensorMU": "mm",
    "sensorDescr": "Raingauge",
    "lon": 16.191944,
    "lat": 38.708332
  },
  {
    "id": "268479020_2",
    "stationName": "Taurianova",
    "sensorMU": "mm",
    "sensorDescr": "Raingauge",
    "lon": 16.010555,
    "lat": 38.35389
  },
  {
    "id": "-2147459650_1",
    "stationName": "Atri",
    "sensorMU": "mm",
    "sensorDescr": "Raingauge",
    "lon": 13.919444,
    "lat": 42.615833
  },
  {
    "id": "268479011_2",
    "stationName": "Polistena",
    "sensorMU": "mm",
    "sensorDescr": "Raingauge",
    "lon": 16.0775,
    "lat": 38.408333
  },
  {
    "id": "-2147459647_1",
    "stationName": "Avezzano",
    "sensorMU": "mm",
    "sensorDescr": "Raingauge",
    "lon": 13.433333,
    "lat": 42.04361
  },
  {
    "id": "268479000_2",
    "stationName": "Gioia Tauro SS18",
    "sensorMU": "mm",
    "sensorDescr": "Raingauge",
    "lon": 15.907222,
    "lat": 38.430832
  },
  {
    "id": "-2147459646_1",
    "stationName": "Bellante",
    "sensorMU": "mm",
    "sensorDescr": "Raingauge",
    "lon": 13.833333,
    "lat": 42.716667
  },
  {
    "id": "268437392_2",
    "stationName": "Andreis",
    "sensorMU": "mm",
    "sensorDescr": "Raingauge",
    "lon": 12.6241665,
    "lat": 46.19528
  },
  {
    "id": "-2147459645_1",
    "stationName": "Borgo Ottomila",
    "sensorMU": "mm",
    "sensorDescr": "Raingauge",
    "lon": 13.549444,
    "lat": 41.996666
  },
  {
    "id": "-2147439896_2",
    "stationName": "Tribano Ponte Zata CMT",
    "sensorMU": "mm",
    "sensorDescr": "Raingauge",
    "lon": 11.8488,
    "lat": 45.18669
  },
  {
    "id": "-2147459644_1",
    "stationName": "Bugnara",
    "sensorMU": "mm",
    "sensorDescr": "Raingauge",
    "lon": 13.866667,
    "lat": 42.016666
  },
  {
    "id": "-2147459643_1",
    "stationName": "Canzano",
    "sensorMU": "mm",
    "sensorDescr": "Raingauge",
    "lon": 13.816667,
    "lat": 42.616665
  },
  {
    "id": "-2147459642_1",
    "stationName": "Carpineto Sinello",
    "sensorMU": "mm",
    "sensorDescr": "Raingauge",
    "lon": 14.471389,
    "lat": 42.017776
  },
  {
    "id": "-2147459641_1",
    "stationName": "Casalbordino",
    "sensorMU": "mm",
    "sensorDescr": "Raingauge",
    "lon": 14.624444,
    "lat": 42.161945
  },
  {
    "id": "1280_2",
    "stationName": "Cilia",
    "sensorMU": "mm",
    "sensorDescr": "Raingauge",
    "lon": 12.795834,
    "lat": 46.224167
  },
  {
    "id": "-2147459640_1",
    "stationName": "Casale Calore",
    "sensorMU": "mm",
    "sensorDescr": "Raingauge",
    "lon": 13.3,
    "lat": 42.366665
  },
  {
    "id": "268479908_2",
    "stationName": "Ciro' Superiore",
    "sensorMU": "mm",
    "sensorDescr": "Raingauge",
    "lon": 17.05889,
    "lat": 39.381668
  },
  {
    "id": "-2147459639_1",
    "stationName": "Celano",
    "sensorMU": "mm",
    "sensorDescr": "Raingauge",
    "lon": 13.533334,
    "lat": 42.033333
  },
  {
    "id": "-2147459638_1",
    "stationName": "Cellino Attanasio",
    "sensorMU": "mm",
    "sensorDescr": "Raingauge",
    "lon": 13.867222,
    "lat": 42.610554
  },
  {
    "id": "-2147459637_1",
    "stationName": "Cepagatti",
    "sensorMU": "mm",
    "sensorDescr": "Raingauge",
    "lon": 14.079722,
    "lat": 42.37611
  },
  {
    "id": "268441210_2",
    "stationName": "Tor Vergata",
    "sensorMU": "mm",
    "sensorDescr": "Raingauge",
    "lon": 12.628056,
    "lat": 41.84861
  },
  {
    "id": "-2147459636_1",
    "stationName": "Citta' S.Angelo",
    "sensorMU": "mm",
    "sensorDescr": "Raingauge",
    "lon": 14.116944,
    "lat": 42.503056
  },
  {
    "id": "268485172_2",
    "stationName": "Tor Vergata",
    "sensorMU": "mm",
    "sensorDescr": "Pluviometro 224",
    "lon": 12.628056,
    "lat": 41.84861
  },
  {
    "id": "-2147459635_1",
    "stationName": "Civitella del Tronto",
    "sensorMU": "mm",
    "sensorDescr": "Raingauge",
    "lon": 13.707222,
    "lat": 42.79889
  },
  {
    "id": "-2147459634_1",
    "stationName": "Colle Roio",
    "sensorMU": "mm",
    "sensorDescr": "Raingauge",
    "lon": 13.366667,
    "lat": 42.333332
  },
  {
    "id": "-2147459633_1",
    "stationName": "Controguerra",
    "sensorMU": "mm",
    "sensorDescr": "Raingauge",
    "lon": 13.783334,
    "lat": 42.833332
  },
  {
    "id": "-2147459632_1",
    "stationName": "Elice",
    "sensorMU": "mm",
    "sensorDescr": "Raingauge",
    "lon": 13.981112,
    "lat": 42.512222
  },
  {
    "id": "-2147459631_1",
    "stationName": "Fossacesia",
    "sensorMU": "mm",
    "sensorDescr": "Raingauge",
    "lon": 14.506945,
    "lat": 42.231945
  },
  {
    "id": "-2147459630_1",
    "stationName": "Francavilla al Mare",
    "sensorMU": "mm",
    "sensorDescr": "Raingauge",
    "lon": 14.2475,
    "lat": 42.431667
  },
  {
    "id": "7784_2",
    "stationName": "Salbertrand-Le Selle",
    "sensorMU": "mm",
    "sensorDescr": "Raingauge",
    "lon": 6.9169445,
    "lat": 45.05389
  },
  {
    "id": "-2147459629_1",
    "stationName": "Gissi",
    "sensorMU": "mm",
    "sensorDescr": "Raingauge",
    "lon": 14.584167,
    "lat": 42.059444
  },
  {
    "id": "-2147459628_1",
    "stationName": "Isola del Gran Sasso",
    "sensorMU": "mm",
    "sensorDescr": "Raingauge",
    "lon": 13.6663885,
    "lat": 42.50861
  },